[{"city":"Aaronsburg","latitude":"40.9042","longitude":"-77.4513"},{"city":"Abbeville","latitude":"31.9925","longitude":"-83.3068"},{"city":"Abbeville","latitude":"29.975","longitude":"-92.1266"},{"city":"Abbeville","latitude":"31.5664","longitude":"-85.2528"},{"city":"Abbeville","latitude":"34.5034","longitude":"-89.5025"},{"city":"Abbeville","latitude":"34.1787","longitude":"-82.3774"},{"city":"Abbotsford","latitude":"44.9433","longitude":"-90.3163"},{"city":"Abbott","latitude":"31.887","longitude":"-97.08"},{"city":"Abbottstown","latitude":"39.8843","longitude":"-76.9888"},{"city":"Abbyville","latitude":"37.9705","longitude":"-98.2029"},{"city":"Abercrombie","latitude":"46.4471","longitude":"-96.7294"},{"city":"Aberdeen","latitude":"45.4646","longitude":"-98.468"},{"city":"Aberdeen","latitude":"33.8287","longitude":"-88.5539"},{"city":"Aberdeen","latitude":"42.9441","longitude":"-112.8384"},{"city":"Aberdeen","latitude":"39.5146","longitude":"-76.173"},{"city":"Aberdeen","latitude":"46.9757","longitude":"-123.8095"},{"city":"Aberdeen","latitude":"35.1351","longitude":"-79.4319"},{"city":"Aberdeen","latitude":"38.6714","longitude":"-83.7705"},{"city":"Aberdeen Proving Ground","latitude":"39.4673","longitude":"-76.1308"},{"city":"Abernathy","latitude":"33.8389","longitude":"-101.8229"},{"city":"Abie","latitude":"41.334","longitude":"-96.9493"},{"city":"Abilene","latitude":"38.9229","longitude":"-97.2251"},{"city":"Abilene","latitude":"32.4543","longitude":"-99.7384"},{"city":"Abingdon","latitude":"40.8039","longitude":"-90.4009"},{"city":"Abingdon","latitude":"36.7089","longitude":"-81.9713"},{"city":"Abiquiu","latitude":"36.2017","longitude":"-106.3239"},{"city":"Abita Springs","latitude":"30.4761","longitude":"-90.0292"},{"city":"Abrams","latitude":"44.7796","longitude":"-88.0605"},{"city":"Absarokee","latitude":"45.5242","longitude":"-109.4474"},{"city":"Absecon","latitude":"39.4228","longitude":"-74.4944"},{"city":"Acampo","latitude":"38.1735","longitude":"-121.2798"},{"city":"Accident","latitude":"39.6257","longitude":"-79.32"},{"city":"Accokeek","latitude":"38.6745","longitude":"-77.0023"},{"city":"Accomac","latitude":"37.7196","longitude":"-75.6673"},{"city":"Accord","latitude":"41.7972","longitude":"-74.2319"},{"city":"Accoville","latitude":"37.7652","longitude":"-81.827"},{"city":"Achille","latitude":"33.8347","longitude":"-96.3901"},{"city":"Ackerly","latitude":"32.5251","longitude":"-101.7158"},{"city":"Ackerman","latitude":"33.311","longitude":"-89.1711"},{"city":"Ackermanville","latitude":"40.835","longitude":"-75.2226"},{"city":"Ackley","latitude":"42.5518","longitude":"-93.0528"},{"city":"Ackworth","latitude":"41.3642","longitude":"-93.4723"},{"city":"Acme","latitude":"48.7146","longitude":"-122.2293"},{"city":"Acton","latitude":"34.4956","longitude":"-118.1858"},{"city":"Acworth","latitude":"34.0565","longitude":"-84.6709"},{"city":"Ada","latitude":"34.7686","longitude":"-96.6689"},{"city":"Ada","latitude":"47.2992","longitude":"-96.5165"},{"city":"Ada","latitude":"40.768","longitude":"-83.8252"},{"city":"Adair","latitude":"36.4366","longitude":"-95.2727"},{"city":"Adair","latitude":"40.4183","longitude":"-90.4974"},{"city":"Adair","latitude":"41.5004","longitude":"-94.6434"},{"city":"Adairsville","latitude":"34.3702","longitude":"-84.9214"},{"city":"Adairville","latitude":"36.671","longitude":"-86.8561"},{"city":"Adak","latitude":"51.8815","longitude":"-176.6295"},{"city":"Adams","latitude":"40.4571","longitude":"-96.5127"},{"city":"Adams","latitude":"43.5654","longitude":"-92.719"},{"city":"Adams","latitude":"45.7663","longitude":"-118.5642"},{"city":"Adams","latitude":"43.8102","longitude":"-76.023"},{"city":"Adams","latitude":"48.4202","longitude":"-98.0737"},{"city":"Adams","latitude":"43.9554","longitude":"-89.8169"},{"city":"Adams","latitude":"36.5826","longitude":"-87.0634"},{"city":"Adams Center","latitude":"43.8616","longitude":"-76.0001"},{"city":"Adamsburg","latitude":"40.3124","longitude":"-79.6542"},{"city":"Adamstown","latitude":"40.2417","longitude":"-76.0608"},{"city":"Adamstown","latitude":"39.3065","longitude":"-77.4668"},{"city":"Adamsville","latitude":"33.6063","longitude":"-86.9745"},{"city":"Adamsville","latitude":"41.5114","longitude":"-80.3705"},{"city":"Adamsville","latitude":"40.0689","longitude":"-81.8826"},{"city":"Adamsville","latitude":"35.2564","longitude":"-88.3862"},{"city":"Addieville","latitude":"38.3913","longitude":"-89.4865"},{"city":"Addington","latitude":"34.2431","longitude":"-97.9661"},{"city":"Addis","latitude":"30.3652","longitude":"-91.2659"},{"city":"Addison","latitude":"41.9862","longitude":"-84.3491"},{"city":"Addison","latitude":"41.9314","longitude":"-88.0085"},{"city":"Addison","latitude":"39.7452","longitude":"-79.3344"},{"city":"Addison","latitude":"32.9586","longitude":"-96.8356"},{"city":"Addison","latitude":"42.1063","longitude":"-77.232"},{"city":"Addison","latitude":"34.2017","longitude":"-87.1765"},{"city":"Addy","latitude":"48.3588","longitude":"-117.8372"},{"city":"Addyston","latitude":"39.137","longitude":"-84.7103"},{"city":"Adel","latitude":"41.6121","longitude":"-94.0129"},{"city":"Adel","latitude":"31.1271","longitude":"-83.4232"},{"city":"Adelanto","latitude":"34.5815","longitude":"-117.4397"},{"city":"Adell","latitude":"43.6214","longitude":"-87.9482"},{"city":"Adelphi","latitude":"39.4647","longitude":"-82.7456"},{"city":"Adena","latitude":"40.2166","longitude":"-80.8762"},{"city":"Adin","latitude":"41.1964","longitude":"-120.9494"},{"city":"Admire","latitude":"38.641","longitude":"-96.102"},{"city":"Adona","latitude":"35.0399","longitude":"-92.8991"},{"city":"Adrian","latitude":"32.5306","longitude":"-82.592"},{"city":"Adrian","latitude":"43.6332","longitude":"-95.9331"},{"city":"Adrian","latitude":"41.8994","longitude":"-84.0446"},{"city":"Adrian","latitude":"38.396","longitude":"-94.3498"},{"city":"Adrian","latitude":"43.7408","longitude":"-117.0709"},{"city":"Adrian","latitude":"35.2741","longitude":"-102.6673"},{"city":"Advance","latitude":"37.1038","longitude":"-89.9119"},{"city":"Advance","latitude":"39.9954","longitude":"-86.6204"},{"city":"Advance","latitude":"35.9468","longitude":"-80.4045"},{"city":"Afton","latitude":"42.2291","longitude":"-75.5247"},{"city":"Afton","latitude":"36.6964","longitude":"-94.958"},{"city":"Afton","latitude":"44.9042","longitude":"-92.8173"},{"city":"Afton","latitude":"42.7279","longitude":"-110.9314"},{"city":"Afton","latitude":"41.0276","longitude":"-94.1954"},{"city":"Agar","latitude":"44.8398","longitude":"-100.0733"},{"city":"Agency","latitude":"40.9975","longitude":"-92.3072"},{"city":"Agency","latitude":"39.6698","longitude":"-94.7587"},{"city":"Agenda","latitude":"39.7063","longitude":"-97.4325"},{"city":"Agoura Hills","latitude":"34.151","longitude":"-118.7608"},{"city":"Agra","latitude":"39.7616","longitude":"-99.1197"},{"city":"Agra","latitude":"35.895","longitude":"-96.8702"},{"city":"Agua Dulce","latitude":"27.7828","longitude":"-97.9098"},{"city":"Aguanga","latitude":"33.4522","longitude":"-116.8555"},{"city":"Aguila","latitude":"33.9376","longitude":"-113.1665"},{"city":"Aguilar","latitude":"37.4036","longitude":"-104.655"},{"city":"Ahmeek","latitude":"47.2984","longitude":"-88.397"},{"city":"Ahoskie","latitude":"36.2843","longitude":"-76.9898"},{"city":"Ahwahnee","latitude":"37.3652","longitude":"-119.7194"},{"city":"Aiea","latitude":"21.3865","longitude":"-157.9232"},{"city":"Aiken","latitude":"33.5304","longitude":"-81.727"},{"city":"Ailey","latitude":"32.1882","longitude":"-82.5699"},{"city":"Ainsworth","latitude":"41.2901","longitude":"-91.5545"},{"city":"Ainsworth","latitude":"42.5485","longitude":"-99.8574"},{"city":"Airway Heights","latitude":"47.6459","longitude":"-117.5792"},{"city":"Aitkin","latitude":"46.5303","longitude":"-93.7051"},{"city":"Ajo","latitude":"32.3923","longitude":"-112.8839"},{"city":"Akaska","latitude":"45.331","longitude":"-100.1209"},{"city":"Akeley","latitude":"47.0005","longitude":"-94.728"},{"city":"Akiachak","latitude":"60.9209","longitude":"-161.402"},{"city":"Akiak","latitude":"60.9061","longitude":"-161.2122"},{"city":"Akron","latitude":"32.8785","longitude":"-87.7429"},{"city":"Akron","latitude":"40.1644","longitude":"-103.2206"},{"city":"Akron","latitude":"42.8268","longitude":"-96.5571"},{"city":"Akron","latitude":"43.5667","longitude":"-83.5143"},{"city":"Akron","latitude":"41.0388","longitude":"-86.0249"},{"city":"Akron","latitude":"43.0179","longitude":"-78.4978"},{"city":"Akron","latitude":"41.0798","longitude":"-81.5219"},{"city":"Akron","latitude":"40.158","longitude":"-76.2032"},{"city":"Akutan","latitude":"54.1594","longitude":"-165.7328"},{"city":"Alabaster","latitude":"33.2198","longitude":"-86.8226"},{"city":"Alachua","latitude":"29.7781","longitude":"-82.4828"},{"city":"Alakanuk","latitude":"62.6902","longitude":"-164.6305"},{"city":"Alamance","latitude":"36.0283","longitude":"-79.4894"},{"city":"Alameda","latitude":"37.767","longitude":"-122.2673"},{"city":"Alamo","latitude":"37.8546","longitude":"-122.0131"},{"city":"Alamo","latitude":"39.9835","longitude":"-87.0554"},{"city":"Alamo","latitude":"37.3648","longitude":"-115.1629"},{"city":"Alamo","latitude":"48.5825","longitude":"-103.4676"},{"city":"Alamo","latitude":"35.7831","longitude":"-89.1167"},{"city":"Alamo","latitude":"26.1811","longitude":"-98.1177"},{"city":"Alamo","latitude":"32.1469","longitude":"-82.7798"},{"city":"Alamogordo","latitude":"32.8837","longitude":"-105.9624"},{"city":"Alamosa","latitude":"37.4755","longitude":"-105.877"},{"city":"Alanson","latitude":"45.4425","longitude":"-84.7871"},{"city":"Alapaha","latitude":"31.3832","longitude":"-83.2237"},{"city":"Alba","latitude":"44.9786","longitude":"-84.9695"},{"city":"Alba","latitude":"41.7059","longitude":"-76.8277"},{"city":"Alba","latitude":"32.7905","longitude":"-95.6344"},{"city":"Alba","latitude":"37.2371","longitude":"-94.4176"},{"city":"Albany","latitude":"40.2479","longitude":"-94.3335"},{"city":"Albany","latitude":"45.6284","longitude":"-94.5674"},{"city":"Albany","latitude":"40.3057","longitude":"-85.2332"},{"city":"Albany","latitude":"33.8769","longitude":"-96.16"},{"city":"Albany","latitude":"39.2245","longitude":"-82.1977"},{"city":"Albany","latitude":"32.7273","longitude":"-99.2956"},{"city":"Albany","latitude":"42.7069","longitude":"-89.4367"},{"city":"Albany","latitude":"44.7302","longitude":"-72.3811"},{"city":"Albany","latitude":"44.6275","longitude":"-123.0966"},{"city":"Albany","latitude":"42.6664","longitude":"-73.7987"},{"city":"Albany","latitude":"30.5026","longitude":"-90.5848"},{"city":"Albany","latitude":"36.6906","longitude":"-85.1353"},{"city":"Albany","latitude":"31.5776","longitude":"-84.1762"},{"city":"Albany","latitude":"37.8898","longitude":"-122.3018"},{"city":"Albany","latitude":"41.7861","longitude":"-90.2166"},{"city":"Albemarle","latitude":"35.3601","longitude":"-80.1919"},{"city":"Albers","latitude":"38.5452","longitude":"-89.6143"},{"city":"Albert","latitude":"38.454","longitude":"-99.0112"},{"city":"Albert City","latitude":"42.7816","longitude":"-94.9491"},{"city":"Albert Lea","latitude":"43.6546","longitude":"-93.3641"},{"city":"Alberta","latitude":"36.8552","longitude":"-77.8937"},{"city":"Alberta","latitude":"45.5749","longitude":"-96.0505"},{"city":"Alberton","latitude":"47.0037","longitude":"-114.4817"},{"city":"Albertson","latitude":"40.7715","longitude":"-73.6482"},{"city":"Albertville","latitude":"45.2364","longitude":"-93.6618"},{"city":"Albertville","latitude":"34.2634","longitude":"-86.2107"},{"city":"Albia","latitude":"41.0272","longitude":"-92.8039"},{"city":"Albin","latitude":"41.4172","longitude":"-104.1016"},{"city":"Albion","latitude":"46.7916","longitude":"-117.2511"},{"city":"Albion","latitude":"43.246","longitude":"-78.1902"},{"city":"Albion","latitude":"41.8904","longitude":"-80.3641"},{"city":"Albion","latitude":"41.6873","longitude":"-97.9987"},{"city":"Albion","latitude":"42.4097","longitude":"-113.5805"},{"city":"Albion","latitude":"42.2478","longitude":"-84.7572"},{"city":"Albion","latitude":"42.1125","longitude":"-92.9887"},{"city":"Albion","latitude":"39.2256","longitude":"-123.7564"},{"city":"Albion","latitude":"41.3966","longitude":"-85.4186"},{"city":"Albion","latitude":"38.3767","longitude":"-88.0581"},{"city":"Albion","latitude":"34.6623","longitude":"-95.0993"},{"city":"Albright","latitude":"39.4937","longitude":"-79.6399"},{"city":"Albrightsville","latitude":"41.0117","longitude":"-75.6068"},{"city":"Albuquerque","latitude":"35.1053","longitude":"-106.6464"},{"city":"Alburnett","latitude":"42.1494","longitude":"-91.6209"},{"city":"Alburtis","latitude":"40.509","longitude":"-75.6001"},{"city":"Alcalde","latitude":"36.0854","longitude":"-106.0575"},{"city":"Alcester","latitude":"43.023","longitude":"-96.628"},{"city":"Alcoa","latitude":"35.8073","longitude":"-83.9752"},{"city":"Alcolu","latitude":"33.7546","longitude":"-80.2221"},{"city":"Alcova","latitude":"42.5543","longitude":"-106.7263"},{"city":"Alda","latitude":"40.8666","longitude":"-98.4679"},{"city":"Alden","latitude":"43.6695","longitude":"-93.5735"},{"city":"Alden","latitude":"42.5114","longitude":"-93.38"},{"city":"Alden","latitude":"42.8988","longitude":"-78.4946"},{"city":"Alden","latitude":"44.8792","longitude":"-85.2729"},{"city":"Alden","latitude":"38.2438","longitude":"-98.3117"},{"city":"Alder","latitude":"45.3216","longitude":"-112.1093"},{"city":"Alderpoint","latitude":"40.1614","longitude":"-123.6157"},{"city":"Alderson","latitude":"34.9008","longitude":"-95.69"},{"city":"Alderson","latitude":"37.7277","longitude":"-80.6436"},{"city":"Aldrich","latitude":"37.5489","longitude":"-93.5511"},{"city":"Aldrich","latitude":"46.3747","longitude":"-94.9394"},{"city":"Aledo","latitude":"41.1984","longitude":"-90.7459"},{"city":"Aledo","latitude":"32.6974","longitude":"-97.607"},{"city":"Aleknagik","latitude":"59.2946","longitude":"-158.6896"},{"city":"Alex","latitude":"34.9227","longitude":"-97.7763"},{"city":"Alexander","latitude":"42.902","longitude":"-78.2591"},{"city":"Alexander","latitude":"34.6185","longitude":"-92.4512"},{"city":"Alexander","latitude":"38.4693","longitude":"-99.553"},{"city":"Alexander","latitude":"42.8044","longitude":"-93.4786"},{"city":"Alexander","latitude":"47.8393","longitude":"-103.6426"},{"city":"Alexander City","latitude":"32.9242","longitude":"-85.9361"},{"city":"Alexandria","latitude":"40.2583","longitude":"-85.676"},{"city":"Alexandria","latitude":"40.2475","longitude":"-97.3877"},{"city":"Alexandria","latitude":"31.2923","longitude":"-92.4702"},{"city":"Alexandria","latitude":"38.9622","longitude":"-84.386"},{"city":"Alexandria","latitude":"40.5583","longitude":"-78.0997"},{"city":"Alexandria","latitude":"43.6541","longitude":"-97.78"},{"city":"Alexandria","latitude":"36.0791","longitude":"-86.0381"},{"city":"Alexandria","latitude":"38.8185","longitude":"-77.0861"},{"city":"Alexandria","latitude":"45.8777","longitude":"-95.3766"},{"city":"Alexandria","latitude":"40.3598","longitude":"-91.4595"},{"city":"Alexandria","latitude":"33.7675","longitude":"-85.8792"},{"city":"Alexandria","latitude":"40.09","longitude":"-82.6121"},{"city":"Alexandria Bay","latitude":"44.3399","longitude":"-75.9161"},{"city":"Alexis","latitude":"41.0629","longitude":"-90.5555"},{"city":"Alford","latitude":"30.6967","longitude":"-85.3952"},{"city":"Alfred","latitude":"42.2541","longitude":"-77.7897"},{"city":"Alger","latitude":"40.7095","longitude":"-83.8439"},{"city":"Algodones","latitude":"35.3802","longitude":"-106.4731"},{"city":"Algoma","latitude":"34.1788","longitude":"-89.0336"},{"city":"Algoma","latitude":"44.6057","longitude":"-87.4465"},{"city":"Algona","latitude":"43.0743","longitude":"-94.2301"},{"city":"Algonac","latitude":"42.6208","longitude":"-82.534"},{"city":"Algonquin","latitude":"42.1629","longitude":"-88.3158"},{"city":"Alhambra","latitude":"38.8878","longitude":"-89.736"},{"city":"Alhambra","latitude":"34.084","longitude":"-118.1355"},{"city":"Alice","latitude":"27.7556","longitude":"-98.0653"},{"city":"Aliceville","latitude":"33.1237","longitude":"-88.1594"},{"city":"Alicia","latitude":"35.8943","longitude":"-91.0832"},{"city":"Aline","latitude":"36.5096","longitude":"-98.4486"},{"city":"Aliquippa","latitude":"40.6155","longitude":"-80.2547"},{"city":"Aliso Viejo","latitude":"33.5792","longitude":"-117.7289"},{"city":"Allakaket","latitude":"66.5506","longitude":"-152.627"},{"city":"Allardt","latitude":"36.3811","longitude":"-84.8814"},{"city":"Allegan","latitude":"42.5299","longitude":"-85.8462"},{"city":"Allegany","latitude":"42.0917","longitude":"-78.4927"},{"city":"Alleghany","latitude":"39.4666","longitude":"-120.841"},{"city":"Alleman","latitude":"41.8159","longitude":"-93.6094"},{"city":"Allen","latitude":"41.958","longitude":"-84.7683"},{"city":"Allen","latitude":"37.6119","longitude":"-82.7291"},{"city":"Allen","latitude":"38.655","longitude":"-96.1696"},{"city":"Allen","latitude":"42.4144","longitude":"-96.8431"},{"city":"Allen","latitude":"34.8774","longitude":"-96.413"},{"city":"Allen","latitude":"38.2886","longitude":"-75.6904"},{"city":"Allen","latitude":"33.1088","longitude":"-96.6735"},{"city":"Allen","latitude":"43.2792","longitude":"-101.9265"},{"city":"Allen Park","latitude":"42.2595","longitude":"-83.2107"},{"city":"Allendale","latitude":"40.4853","longitude":"-94.2887"},{"city":"Allendale","latitude":"38.5276","longitude":"-87.7103"},{"city":"Allendale","latitude":"33.008","longitude":"-81.3092"},{"city":"Allendale","latitude":"42.9851","longitude":"-85.9509"},{"city":"Allendale","latitude":"41.0333","longitude":"-74.1333"},{"city":"Allenhurst","latitude":"31.7839","longitude":"-81.6078"},{"city":"Allenhurst","latitude":"40.2362","longitude":"-74.0017"},{"city":"Allenport","latitude":"40.0923","longitude":"-79.8565"},{"city":"Allenspark","latitude":"40.2099","longitude":"-105.5112"},{"city":"Allensville","latitude":"36.7163","longitude":"-87.0683"},{"city":"Allensville","latitude":"40.5331","longitude":"-77.8143"},{"city":"Allenton","latitude":"43.4204","longitude":"-88.3443"},{"city":"Allentown","latitude":"40.5961","longitude":"-75.4755"},{"city":"Allentown","latitude":"32.5855","longitude":"-83.2273"},{"city":"Allentown","latitude":"40.1777","longitude":"-74.5873"},{"city":"Allenwood","latitude":"41.1081","longitude":"-76.8981"},{"city":"Allenwood","latitude":"40.1384","longitude":"-74.1032"},{"city":"Allerton","latitude":"39.9161","longitude":"-87.9353"},{"city":"Allerton","latitude":"40.7077","longitude":"-93.3689"},{"city":"Allgood","latitude":"33.9064","longitude":"-86.5178"},{"city":"Alliance","latitude":"42.1025","longitude":"-102.8766"},{"city":"Alliance","latitude":"40.9107","longitude":"-81.1189"},{"city":"Alliance","latitude":"35.1435","longitude":"-76.8084"},{"city":"Alligator","latitude":"34.09","longitude":"-90.7206"},{"city":"Allison","latitude":"39.9853","longitude":"-79.8732"},{"city":"Allison","latitude":"42.7518","longitude":"-92.7957"},{"city":"Allison Park","latitude":"40.573","longitude":"-79.9603"},{"city":"Allport","latitude":"40.966","longitude":"-78.2065"},{"city":"Allyn","latitude":"47.3863","longitude":"-122.8386"},{"city":"Alma","latitude":"39.0964","longitude":"-93.5478"},{"city":"Alma","latitude":"39.0151","longitude":"-96.2871"},{"city":"Alma","latitude":"44.3366","longitude":"-91.9222"},{"city":"Alma","latitude":"40.1036","longitude":"-99.3655"},{"city":"Alma","latitude":"43.38","longitude":"-84.6556"},{"city":"Alma","latitude":"39.2862","longitude":"-106.068"},{"city":"Alma","latitude":"35.4919","longitude":"-94.2165"},{"city":"Alma","latitude":"31.5432","longitude":"-82.4745"},{"city":"Alma","latitude":"38.7231","longitude":"-88.9119"},{"city":"Alma Center","latitude":"44.437","longitude":"-90.9128"},{"city":"Almena","latitude":"45.4149","longitude":"-92.0384"},{"city":"Almena","latitude":"39.8913","longitude":"-99.7097"},{"city":"Almira","latitude":"47.7105","longitude":"-118.9369"},{"city":"Almond","latitude":"44.2607","longitude":"-89.4087"},{"city":"Almond","latitude":"42.3193","longitude":"-77.7386"},{"city":"Almont","latitude":"46.7283","longitude":"-101.5026"},{"city":"Almont","latitude":"42.9208","longitude":"-83.0435"},{"city":"Almyra","latitude":"34.4057","longitude":"-91.4109"},{"city":"Alpaugh","latitude":"35.8876","longitude":"-119.4873"},{"city":"Alpena","latitude":"36.2896","longitude":"-93.3038"},{"city":"Alpena","latitude":"44.1829","longitude":"-98.3683"},{"city":"Alpena","latitude":"45.074","longitude":"-83.4399"},{"city":"Alpha","latitude":"43.6382","longitude":"-94.8708"},{"city":"Alpha","latitude":"41.1917","longitude":"-90.3802"},{"city":"Alpha","latitude":"46.044","longitude":"-88.3776"},{"city":"Alpharetta","latitude":"34.0703","longitude":"-84.2738"},{"city":"Alpine","latitude":"33.8461","longitude":"-109.1432"},{"city":"Alpine","latitude":"40.4629","longitude":"-111.7724"},{"city":"Alpine","latitude":"40.9615","longitude":"-73.9199"},{"city":"Alpine","latitude":"32.8439","longitude":"-116.7585"},{"city":"Alpine","latitude":"30.364","longitude":"-103.6651"},{"city":"Alpine","latitude":"43.1608","longitude":"-111.0185"},{"city":"Alsea","latitude":"44.3818","longitude":"-123.5958"},{"city":"Alsen","latitude":"48.6303","longitude":"-98.7048"},{"city":"Alsey","latitude":"39.5593","longitude":"-90.4329"},{"city":"Alsip","latitude":"41.6701","longitude":"-87.7368"},{"city":"Alston","latitude":"32.081","longitude":"-82.4789"},{"city":"Alta","latitude":"39.2138","longitude":"-120.8033"},{"city":"Alta","latitude":"42.6717","longitude":"-95.3045"},{"city":"Alta Vista","latitude":"43.1968","longitude":"-92.417"},{"city":"Alta Vista","latitude":"38.8628","longitude":"-96.4888"},{"city":"Altadena","latitude":"34.1928","longitude":"-118.1345"},{"city":"Altamahaw","latitude":"36.1868","longitude":"-79.5051"},{"city":"Altamont","latitude":"40.3586","longitude":"-110.2887"},{"city":"Altamont","latitude":"39.8886","longitude":"-94.0866"},{"city":"Altamont","latitude":"42.7055","longitude":"-74.034"},{"city":"Altamont","latitude":"35.4325","longitude":"-85.7433"},{"city":"Altamont","latitude":"39.057","longitude":"-88.7474"},{"city":"Altamont","latitude":"37.1874","longitude":"-95.2898"},{"city":"Altamonte Springs","latitude":"28.6615","longitude":"-81.3953"},{"city":"Altavista","latitude":"37.1232","longitude":"-79.2858"},{"city":"Altenburg","latitude":"37.6304","longitude":"-89.586"},{"city":"Altha","latitude":"30.5722","longitude":"-85.1264"},{"city":"Altheimer","latitude":"34.3241","longitude":"-91.8481"},{"city":"Altmar","latitude":"43.5111","longitude":"-76.0037"},{"city":"Alto","latitude":"31.651","longitude":"-95.0708"},{"city":"Alto","latitude":"34.4649","longitude":"-83.5727"},{"city":"Alto Pass","latitude":"37.5737","longitude":"-89.3192"},{"city":"Alton","latitude":"42.9876","longitude":"-96.0095"},{"city":"Alton","latitude":"38.9033","longitude":"-90.1523"},{"city":"Alton","latitude":"36.6901","longitude":"-91.3947"},{"city":"Alton","latitude":"39.4677","longitude":"-98.9486"},{"city":"Alton","latitude":"37.4303","longitude":"-112.5062"},{"city":"Altona","latitude":"41.115","longitude":"-90.1648"},{"city":"Altoona","latitude":"34.031","longitude":"-86.3181"},{"city":"Altoona","latitude":"37.525","longitude":"-95.6614"},{"city":"Altoona","latitude":"41.648","longitude":"-93.4782"},{"city":"Altoona","latitude":"28.9681","longitude":"-81.6482"},{"city":"Altoona","latitude":"44.803","longitude":"-91.4387"},{"city":"Altoona","latitude":"40.5082","longitude":"-78.4007"},{"city":"Altura","latitude":"44.0642","longitude":"-91.9436"},{"city":"Alturas","latitude":"41.4898","longitude":"-120.5516"},{"city":"Alturas","latitude":"27.8419","longitude":"-81.6952"},{"city":"Altus","latitude":"35.4467","longitude":"-93.7644"},{"city":"Altus","latitude":"34.6566","longitude":"-99.3051"},{"city":"Alum Creek","latitude":"38.2876","longitude":"-81.833"},{"city":"Alva","latitude":"36.7893","longitude":"-98.6648"},{"city":"Alva","latitude":"26.7188","longitude":"-81.6269"},{"city":"Alvarado","latitude":"32.4068","longitude":"-97.215"},{"city":"Alvarado","latitude":"48.1929","longitude":"-96.9985"},{"city":"Alvin","latitude":"29.387","longitude":"-95.2936"},{"city":"Alvo","latitude":"40.8723","longitude":"-96.3867"},{"city":"Alvord","latitude":"33.3569","longitude":"-97.696"},{"city":"Alvord","latitude":"43.3418","longitude":"-96.3026"},{"city":"Alvordton","latitude":"41.6646","longitude":"-84.4346"},{"city":"Alzada","latitude":"45.0205","longitude":"-104.4129"},{"city":"Ama","latitude":"29.944","longitude":"-90.2967"},{"city":"Amado","latitude":"31.6968","longitude":"-111.0583"},{"city":"Amador City","latitude":"38.419","longitude":"-120.8232"},{"city":"Amagansett","latitude":"40.9844","longitude":"-72.1326"},{"city":"Amagon","latitude":"35.5632","longitude":"-91.1093"},{"city":"Amana","latitude":"41.8025","longitude":"-91.8741"},{"city":"Amanda","latitude":"39.6502","longitude":"-82.7421"},{"city":"Amanda Park","latitude":"47.4532","longitude":"-123.9194"},{"city":"Amarillo","latitude":"35.1989","longitude":"-101.831"},{"city":"Amasa","latitude":"46.2295","longitude":"-88.4579"},{"city":"Amazonia","latitude":"39.8888","longitude":"-94.8926"},{"city":"Amber","latitude":"35.1602","longitude":"-97.8821"},{"city":"Amberg","latitude":"45.5062","longitude":"-87.9874"},{"city":"Ambia","latitude":"40.4894","longitude":"-87.5165"},{"city":"Ambler","latitude":"40.1565","longitude":"-75.2215"},{"city":"Ambler","latitude":"67.0897","longitude":"-157.8725"},{"city":"Amboy","latitude":"43.8879","longitude":"-94.1583"},{"city":"Amboy","latitude":"45.9122","longitude":"-122.4795"},{"city":"Amboy","latitude":"40.602","longitude":"-85.9275"},{"city":"Amboy","latitude":"41.729","longitude":"-89.3679"},{"city":"Ambridge","latitude":"40.5922","longitude":"-80.2264"},{"city":"Ambrose","latitude":"48.9559","longitude":"-103.4813"},{"city":"Ambrose","latitude":"31.5944","longitude":"-83.0138"},{"city":"Amelia","latitude":"39.0229","longitude":"-84.2184"},{"city":"Amelia","latitude":"29.6645","longitude":"-91.1072"},{"city":"Amelia Court House","latitude":"37.3366","longitude":"-77.9882"},{"city":"Amenia","latitude":"47.0065","longitude":"-97.2241"},{"city":"American Canyon","latitude":"38.1796","longitude":"-122.2583"},{"city":"American Falls","latitude":"42.7828","longitude":"-112.8542"},{"city":"American Fork","latitude":"40.3793","longitude":"-111.7951"},{"city":"Americus","latitude":"32.0736","longitude":"-84.2249"},{"city":"Americus","latitude":"38.5066","longitude":"-96.2615"},{"city":"Amery","latitude":"45.3045","longitude":"-92.3635"},{"city":"Ames","latitude":"36.2471","longitude":"-98.1867"},{"city":"Ames","latitude":"41.4491","longitude":"-96.6262"},{"city":"Ames","latitude":"42.0258","longitude":"-93.6216"},{"city":"Amesville","latitude":"39.4016","longitude":"-81.9549"},{"city":"Amherst","latitude":"44.4475","longitude":"-89.2832"},{"city":"Amherst","latitude":"37.5816","longitude":"-79.0509"},{"city":"Amherst","latitude":"40.8383","longitude":"-99.2697"},{"city":"Amherst","latitude":"40.6831","longitude":"-102.1725"},{"city":"Amherst","latitude":"41.4022","longitude":"-82.2303"},{"city":"Amherst","latitude":"34.012","longitude":"-102.4147"},{"city":"Amherst Junction","latitude":"44.4687","longitude":"-89.3168"},{"city":"Amherstdale","latitude":"37.7799","longitude":"-81.8183"},{"city":"Amidon","latitude":"46.4823","longitude":"-103.3194"},{"city":"Amity","latitude":"34.2662","longitude":"-93.4634"},{"city":"Amity","latitude":"39.8683","longitude":"-94.4354"},{"city":"Amity","latitude":"45.1155","longitude":"-123.2034"},{"city":"Amityville","latitude":"40.6696","longitude":"-73.4156"},{"city":"Amo","latitude":"39.6889","longitude":"-86.6125"},{"city":"Amoret","latitude":"38.2549","longitude":"-94.5873"},{"city":"Amorita","latitude":"36.924","longitude":"-98.2936"},{"city":"Amory","latitude":"33.9813","longitude":"-88.4823"},{"city":"Amsterdam","latitude":"40.4717","longitude":"-80.9217"},{"city":"Amsterdam","latitude":"42.942","longitude":"-74.1907"},{"city":"Amsterdam","latitude":"38.3493","longitude":"-94.589"},{"city":"Anacoco","latitude":"31.2545","longitude":"-93.344"},{"city":"Anaconda","latitude":"46.0607","longitude":"-113.0679"},{"city":"Anacortes","latitude":"48.4878","longitude":"-122.6292"},{"city":"Anadarko","latitude":"35.0652","longitude":"-98.2441"},{"city":"Anaheim","latitude":"33.839","longitude":"-117.8573"},{"city":"Anahola","latitude":"22.1455","longitude":"-159.3151"},{"city":"Anahuac","latitude":"29.7649","longitude":"-94.6787"},{"city":"Anaktuvuk Pass","latitude":"68.15","longitude":"-151.7162"},{"city":"Anamoose","latitude":"47.8828","longitude":"-100.242"},{"city":"Anamosa","latitude":"42.1091","longitude":"-91.2758"},{"city":"Anawalt","latitude":"37.3364","longitude":"-81.4407"},{"city":"Anchor","latitude":"40.5683","longitude":"-88.5383"},{"city":"Anchor Point","latitude":"59.7703","longitude":"-151.7052"},{"city":"Anchorage","latitude":"61.1508","longitude":"-149.1091"},{"city":"Andale","latitude":"37.7914","longitude":"-97.6273"},{"city":"Andalusia","latitude":"41.4373","longitude":"-90.7164"},{"city":"Andalusia","latitude":"31.3101","longitude":"-86.4781"},{"city":"Anderson","latitude":"34.9147","longitude":"-87.2716"},{"city":"Anderson","latitude":"64.3074","longitude":"-149.1562"},{"city":"Anderson","latitude":"40.451","longitude":"-122.2962"},{"city":"Anderson","latitude":"40.0874","longitude":"-85.692"},{"city":"Anderson","latitude":"36.6533","longitude":"-94.4441"},{"city":"Anderson","latitude":"30.4871","longitude":"-95.9899"},{"city":"Anderson","latitude":"34.5212","longitude":"-82.6478"},{"city":"Anderson Island","latitude":"47.1577","longitude":"-122.7037"},{"city":"Andersonville","latitude":"32.1965","longitude":"-84.1454"},{"city":"Andersonville","latitude":"36.197","longitude":"-84.033"},{"city":"Andover","latitude":"45.4102","longitude":"-97.9037"},{"city":"Andover","latitude":"41.6065","longitude":"-80.5687"},{"city":"Andover","latitude":"42.1575","longitude":"-77.7955"},{"city":"Andover","latitude":"37.6868","longitude":"-97.1353"},{"city":"Andover","latitude":"41.9799","longitude":"-90.2529"},{"city":"Andover","latitude":"41.2949","longitude":"-90.2907"},{"city":"Andover","latitude":"45.2571","longitude":"-93.3265"},{"city":"Andover","latitude":"40.9859","longitude":"-74.7429"},{"city":"Andrew","latitude":"42.1533","longitude":"-90.5923"},{"city":"Andrews","latitude":"32.3208","longitude":"-102.552"},{"city":"Andrews","latitude":"40.8605","longitude":"-85.6022"},{"city":"Andrews","latitude":"33.4494","longitude":"-79.5659"},{"city":"Andrews","latitude":"35.1994","longitude":"-83.8258"},{"city":"Aneta","latitude":"47.6795","longitude":"-97.9897"},{"city":"Aneth","latitude":"37.205","longitude":"-109.1623"},{"city":"Angel Fire","latitude":"36.3821","longitude":"-105.2718"},{"city":"Angelica","latitude":"42.3055","longitude":"-78.0206"},{"city":"Angie","latitude":"30.9633","longitude":"-89.8177"},{"city":"Angier","latitude":"35.5105","longitude":"-78.7394"},{"city":"Angle Inlet","latitude":"49.3465","longitude":"-95.0732"},{"city":"Angleton","latitude":"29.1716","longitude":"-95.4292"},{"city":"Angola","latitude":"41.6432","longitude":"-85.005"},{"city":"Angola","latitude":"42.6379","longitude":"-79.0295"},{"city":"Angoon","latitude":"57.455","longitude":"-134.4978"},{"city":"Anguilla","latitude":"32.9719","longitude":"-90.8284"},{"city":"Angwin","latitude":"38.5776","longitude":"-122.4512"},{"city":"Aniak","latitude":"61.5817","longitude":"-159.5451"},{"city":"Animas","latitude":"31.9449","longitude":"-108.8065"},{"city":"Anita","latitude":"41.4436","longitude":"-94.7659"},{"city":"Aniwa","latitude":"45.0117","longitude":"-89.2089"},{"city":"Ankeny","latitude":"41.7284","longitude":"-93.6034"},{"city":"Anmoore","latitude":"39.2611","longitude":"-80.2862"},{"city":"Ann Arbor","latitude":"42.2755","longitude":"-83.7312"},{"city":"Anna","latitude":"37.4612","longitude":"-89.2388"},{"city":"Anna","latitude":"33.347","longitude":"-96.5503"},{"city":"Anna","latitude":"40.3958","longitude":"-84.176"},{"city":"Anna Maria","latitude":"27.5296","longitude":"-82.7338"},{"city":"Annabella","latitude":"38.7059","longitude":"-112.0585"},{"city":"Annada","latitude":"39.2622","longitude":"-90.8287"},{"city":"Annandale","latitude":"45.2598","longitude":"-94.1206"},{"city":"Annandale","latitude":"40.6468","longitude":"-74.8881"},{"city":"Annandale","latitude":"38.8324","longitude":"-77.196"},{"city":"Annapolis","latitude":"38.9706","longitude":"-76.5047"},{"city":"Annapolis","latitude":"37.3605","longitude":"-90.6975"},{"city":"Annapolis","latitude":"39.1453","longitude":"-87.8157"},{"city":"Annawan","latitude":"41.3959","longitude":"-89.8887"},{"city":"Anniston","latitude":"33.6713","longitude":"-85.8136"},{"city":"Anniston","latitude":"36.8243","longitude":"-89.3267"},{"city":"Annona","latitude":"33.5818","longitude":"-94.913"},{"city":"Annville","latitude":"37.3255","longitude":"-83.9622"},{"city":"Annville","latitude":"40.3326","longitude":"-76.5077"},{"city":"Anoka","latitude":"45.2099","longitude":"-93.3893"},{"city":"Anselmo","latitude":"41.6186","longitude":"-99.8645"},{"city":"Ansley","latitude":"41.2863","longitude":"-99.3824"},{"city":"Anson","latitude":"32.755","longitude":"-99.8962"},{"city":"Ansonia","latitude":"40.2141","longitude":"-84.6344"},{"city":"Ansonia","latitude":"41.3443","longitude":"-73.0689"},{"city":"Ansonville","latitude":"35.1042","longitude":"-80.1098"},{"city":"Ansted","latitude":"38.1357","longitude":"-81.1038"},{"city":"Antelope","latitude":"44.9113","longitude":"-120.7236"},{"city":"Antelope","latitude":"48.6897","longitude":"-104.4539"},{"city":"Antelope","latitude":"38.7153","longitude":"-121.361"},{"city":"Anthon","latitude":"42.3881","longitude":"-95.8657"},{"city":"Anthony","latitude":"31.9876","longitude":"-106.5933"},{"city":"Anthony","latitude":"37.1573","longitude":"-98.0408"},{"city":"Anthony","latitude":"32.0132","longitude":"-106.5984"},{"city":"Antigo","latitude":"45.1415","longitude":"-89.1556"},{"city":"Antimony","latitude":"38.103","longitude":"-111.9823"},{"city":"Antioch","latitude":"42.4742","longitude":"-88.0721"},{"city":"Antioch","latitude":"37.9789","longitude":"-121.7957"},{"city":"Antler","latitude":"48.9713","longitude":"-101.2832"},{"city":"Antlers","latitude":"34.2325","longitude":"-95.6214"},{"city":"Antoine","latitude":"34.0343","longitude":"-93.4226"},{"city":"Anton","latitude":"33.8113","longitude":"-102.1622"},{"city":"Anton Chico","latitude":"35.1948","longitude":"-105.1439"},{"city":"Antonito","latitude":"37.0766","longitude":"-106.0103"},{"city":"Antwerp","latitude":"44.1993","longitude":"-75.6075"},{"city":"Antwerp","latitude":"41.1798","longitude":"-84.7378"},{"city":"Anvik","latitude":"62.6541","longitude":"-160.214"},{"city":"Anza","latitude":"33.5679","longitude":"-116.6967"},{"city":"Apache","latitude":"34.8938","longitude":"-98.3581"},{"city":"Apache Junction","latitude":"33.3985","longitude":"-111.5351"},{"city":"Apalachicola","latitude":"29.7282","longitude":"-84.994"},{"city":"Apalachin","latitude":"42.0705","longitude":"-76.1626"},{"city":"Apex","latitude":"35.7246","longitude":"-78.8698"},{"city":"Apison","latitude":"35.0104","longitude":"-85.0089"},{"city":"Aplington","latitude":"42.582","longitude":"-92.8838"},{"city":"Apollo","latitude":"40.5849","longitude":"-79.5648"},{"city":"Apollo Beach","latitude":"27.7618","longitude":"-82.4002"},{"city":"Apopka","latitude":"28.7013","longitude":"-81.5303"},{"city":"Appalachia","latitude":"36.9098","longitude":"-82.7882"},{"city":"Apple Creek","latitude":"40.7486","longitude":"-81.8334"},{"city":"Apple Grove","latitude":"38.6663","longitude":"-82.1707"},{"city":"Apple River","latitude":"42.5022","longitude":"-90.0937"},{"city":"Apple Valley","latitude":"34.5328","longitude":"-117.2104"},{"city":"Applegate","latitude":"43.3554","longitude":"-82.6371"},{"city":"Appleton","latitude":"44.2774","longitude":"-88.3894"},{"city":"Appleton","latitude":"45.1997","longitude":"-96.0225"},{"city":"Appleton City","latitude":"38.1906","longitude":"-94.031"},{"city":"Appling","latitude":"33.5588","longitude":"-82.3183"},{"city":"Appomattox","latitude":"37.3591","longitude":"-78.8269"},{"city":"Aptos","latitude":"36.9912","longitude":"-121.8934"},{"city":"Aquasco","latitude":"38.5913","longitude":"-76.7074"},{"city":"Aquebogue","latitude":"40.9425","longitude":"-72.6149"},{"city":"Aquilla","latitude":"31.8548","longitude":"-97.22"},{"city":"Arab","latitude":"34.3309","longitude":"-86.4991"},{"city":"Arabi","latitude":"31.8282","longitude":"-83.7302"},{"city":"Arabi","latitude":"29.9562","longitude":"-89.9986"},{"city":"Aragon","latitude":"34.0459","longitude":"-85.057"},{"city":"Aragon","latitude":"33.8899","longitude":"-108.5201"},{"city":"Aransas Pass","latitude":"27.8877","longitude":"-97.1134"},{"city":"Arapaho","latitude":"35.5779","longitude":"-98.9593"},{"city":"Arapahoe","latitude":"40.3049","longitude":"-99.898"},{"city":"Arapahoe","latitude":"42.9912","longitude":"-108.4562"},{"city":"Arapahoe","latitude":"35.0216","longitude":"-76.826"},{"city":"Arbela","latitude":"40.4631","longitude":"-92.0156"},{"city":"Arboles","latitude":"37.0201","longitude":"-107.4222"},{"city":"Arbovale","latitude":"38.4353","longitude":"-79.8116"},{"city":"Arbuckle","latitude":"39.0141","longitude":"-122.061"},{"city":"Arbyrd","latitude":"36.0535","longitude":"-90.2399"},{"city":"Arcade","latitude":"42.5317","longitude":"-78.4327"},{"city":"Arcadia","latitude":"41.1078","longitude":"-83.5144"},{"city":"Arcadia","latitude":"35.6655","longitude":"-97.3255"},{"city":"Arcadia","latitude":"34.9609","longitude":"-81.9929"},{"city":"Arcadia","latitude":"37.5864","longitude":"-90.6293"},{"city":"Arcadia","latitude":"37.6409","longitude":"-94.6239"},{"city":"Arcadia","latitude":"40.1742","longitude":"-86.0211"},{"city":"Arcadia","latitude":"34.1342","longitude":"-118.0373"},{"city":"Arcadia","latitude":"27.2214","longitude":"-81.8587"},{"city":"Arcadia","latitude":"42.0862","longitude":"-95.0432"},{"city":"Arcadia","latitude":"41.4248","longitude":"-99.1259"},{"city":"Arcadia","latitude":"32.5506","longitude":"-92.9218"},{"city":"Arcadia","latitude":"44.4931","longitude":"-86.2369"},{"city":"Arcadia","latitude":"44.2486","longitude":"-91.4921"},{"city":"Arcanum","latitude":"39.9923","longitude":"-84.5543"},{"city":"Arcata","latitude":"40.8615","longitude":"-124.0757"},{"city":"Archbald","latitude":"41.5077","longitude":"-75.5453"},{"city":"Archbold","latitude":"41.5165","longitude":"-84.3036"},{"city":"Archer","latitude":"29.54","longitude":"-82.5186"},{"city":"Archer","latitude":"43.1151","longitude":"-95.7442"},{"city":"Archer","latitude":"41.1667","longitude":"-98.1389"},{"city":"Archer City","latitude":"33.5937","longitude":"-98.6257"},{"city":"Archie","latitude":"38.4826","longitude":"-94.3502"},{"city":"Arco","latitude":"44.3814","longitude":"-96.1812"},{"city":"Arco","latitude":"43.6316","longitude":"-113.3017"},{"city":"Arcola","latitude":"33.2705","longitude":"-90.88"},{"city":"Arcola","latitude":"37.5493","longitude":"-93.876"},{"city":"Arcola","latitude":"38.9447","longitude":"-77.5306"},{"city":"Arcola","latitude":"39.6833","longitude":"-88.3013"},{"city":"Arctic Village","latitude":"68.1421","longitude":"-145.4957"},{"city":"Ardmore","latitude":"34.9847","longitude":"-86.8373"},{"city":"Ardmore","latitude":"34.1943","longitude":"-97.1253"},{"city":"Ardmore","latitude":"40.0032","longitude":"-75.2947"},{"city":"Ardmore","latitude":"35.0031","longitude":"-86.855"},{"city":"Ardoch","latitude":"48.2054","longitude":"-97.338"},{"city":"Ardsley","latitude":"41.0135","longitude":"-73.8395"},{"city":"Aredale","latitude":"42.8332","longitude":"-93.0054"},{"city":"Arena","latitude":"43.1636","longitude":"-89.9104"},{"city":"Arenas Valley","latitude":"32.7765","longitude":"-108.203"},{"city":"Arendtsville","latitude":"39.9234","longitude":"-77.2998"},{"city":"Arenzville","latitude":"39.8805","longitude":"-90.3706"},{"city":"Argenta","latitude":"39.9855","longitude":"-88.8197"},{"city":"Argonia","latitude":"37.2679","longitude":"-97.7629"},{"city":"Argonne","latitude":"45.6582","longitude":"-88.8777"},{"city":"Argos","latitude":"41.2379","longitude":"-86.2521"},{"city":"Argusville","latitude":"47.0501","longitude":"-96.9431"},{"city":"Argyle","latitude":"43.2363","longitude":"-73.4907"},{"city":"Argyle","latitude":"42.7013","longitude":"-89.8659"},{"city":"Argyle","latitude":"38.2954","longitude":"-92.0256"},{"city":"Argyle","latitude":"31.0732","longitude":"-82.6489"},{"city":"Argyle","latitude":"48.3366","longitude":"-96.8162"},{"city":"Argyle","latitude":"33.1105","longitude":"-97.1864"},{"city":"Arimo","latitude":"42.5598","longitude":"-112.1725"},{"city":"Arion","latitude":"41.9482","longitude":"-95.4623"},{"city":"Aripeka","latitude":"28.4308","longitude":"-82.6669"},{"city":"Arispe","latitude":"40.948","longitude":"-94.2192"},{"city":"Aristes","latitude":"40.8155","longitude":"-76.3395"},{"city":"Ariton","latitude":"31.5978","longitude":"-85.7131"},{"city":"Arivaca","latitude":"31.575","longitude":"-111.2926"},{"city":"Arizona City","latitude":"32.7506","longitude":"-111.6707"},{"city":"Arjay","latitude":"36.8061","longitude":"-83.6422"},{"city":"Arkadelphia","latitude":"34.125","longitude":"-93.0719"},{"city":"Arkansas City","latitude":"33.6089","longitude":"-91.2048"},{"city":"Arkansas City","latitude":"37.0726","longitude":"-97.0385"},{"city":"Arkansaw","latitude":"44.6334","longitude":"-92.0222"},{"city":"Arkdale","latitude":"44.0253","longitude":"-89.8861"},{"city":"Arkoma","latitude":"35.3374","longitude":"-94.4438"},{"city":"Arkport","latitude":"42.3926","longitude":"-77.6955"},{"city":"Arlee","latitude":"47.1679","longitude":"-114.0838"},{"city":"Arley","latitude":"34.0886","longitude":"-87.2074"},{"city":"Arlington","latitude":"31.4383","longitude":"-84.7253"},{"city":"Arlington","latitude":"42.7489","longitude":"-91.6711"},{"city":"Arlington","latitude":"39.6458","longitude":"-85.5796"},{"city":"Arlington","latitude":"41.4717","longitude":"-89.2482"},{"city":"Arlington","latitude":"44.6083","longitude":"-94.0766"},{"city":"Arlington","latitude":"41.4548","longitude":"-96.3565"},{"city":"Arlington","latitude":"37.8963","longitude":"-98.1781"},{"city":"Arlington","latitude":"36.7904","longitude":"-89.0132"},{"city":"Arlington","latitude":"45.7207","longitude":"-120.1888"},{"city":"Arlington","latitude":"44.3635","longitude":"-97.1338"},{"city":"Arlington","latitude":"48.1697","longitude":"-122.1446"},{"city":"Arlington","latitude":"40.8939","longitude":"-83.6529"},{"city":"Arlington","latitude":"43.335","longitude":"-89.3725"},{"city":"Arlington","latitude":"38.8786","longitude":"-77.1011"},{"city":"Arlington","latitude":"35.2594","longitude":"-89.668"},{"city":"Arlington","latitude":"32.6998","longitude":"-97.1251"},{"city":"Arlington","latitude":"33.3346","longitude":"-112.7747"},{"city":"Arlington Heights","latitude":"42.0956","longitude":"-87.9825"},{"city":"Arma","latitude":"37.543","longitude":"-94.7024"},{"city":"Armada","latitude":"42.8424","longitude":"-82.8832"},{"city":"Armagh","latitude":"40.4536","longitude":"-79.0324"},{"city":"Armington","latitude":"40.3398","longitude":"-89.3143"},{"city":"Armona","latitude":"36.3179","longitude":"-119.7054"},{"city":"Armonk","latitude":"41.132","longitude":"-73.7137"},{"city":"Armour","latitude":"43.319","longitude":"-98.3448"},{"city":"Armstrong","latitude":"39.2692","longitude":"-92.7042"},{"city":"Armstrong","latitude":"43.3945","longitude":"-94.4834"},{"city":"Arnaudville","latitude":"30.4021","longitude":"-91.932"},{"city":"Arnegard","latitude":"47.8084","longitude":"-103.4388"},{"city":"Arnett","latitude":"36.1349","longitude":"-99.7711"},{"city":"Arnold","latitude":"39.0437","longitude":"-76.4974"},{"city":"Arnold","latitude":"38.4294","longitude":"-90.3725"},{"city":"Arnold","latitude":"41.4232","longitude":"-100.1936"},{"city":"Arnold","latitude":"38.2423","longitude":"-120.3547"},{"city":"Arnolds Park","latitude":"43.3601","longitude":"-95.1264"},{"city":"Arnoldsville","latitude":"33.9103","longitude":"-83.218"},{"city":"Arnot","latitude":"41.6623","longitude":"-77.1222"},{"city":"Aroma Park","latitude":"41.0789","longitude":"-87.8011"},{"city":"Aromas","latitude":"36.8771","longitude":"-121.6404"},{"city":"Arona","latitude":"40.2683","longitude":"-79.6578"},{"city":"Arp","latitude":"32.2279","longitude":"-95.0536"},{"city":"Arpin","latitude":"44.5393","longitude":"-90.0315"},{"city":"Arrey","latitude":"32.8472","longitude":"-107.3204"},{"city":"Arriba","latitude":"39.2841","longitude":"-103.2739"},{"city":"Arrington","latitude":"37.6744","longitude":"-78.8928"},{"city":"Arrow Rock","latitude":"39.0699","longitude":"-92.9473"},{"city":"Arrowsmith","latitude":"40.4493","longitude":"-88.6321"},{"city":"Arroyo Grande","latitude":"35.1242","longitude":"-120.5845"},{"city":"Arroyo Hondo","latitude":"36.5346","longitude":"-105.6666"},{"city":"Arroyo Seco","latitude":"36.5215","longitude":"-105.586"},{"city":"Artemus","latitude":"36.8352","longitude":"-83.8414"},{"city":"Artesia","latitude":"33.4163","longitude":"-88.6424"},{"city":"Artesia","latitude":"32.8492","longitude":"-104.4275"},{"city":"Artesia","latitude":"33.8676","longitude":"-118.0806"},{"city":"Artesian","latitude":"44.0079","longitude":"-97.9237"},{"city":"Arthur","latitude":"47.1043","longitude":"-97.2184"},{"city":"Arthur","latitude":"41.5718","longitude":"-101.6923"},{"city":"Arthur","latitude":"39.7144","longitude":"-88.4696"},{"city":"Arthur","latitude":"42.3353","longitude":"-95.3469"},{"city":"Artois","latitude":"39.6332","longitude":"-122.1898"},{"city":"Arvada","latitude":"39.8321","longitude":"-105.1511"},{"city":"Arvada","latitude":"44.6621","longitude":"-106.1419"},{"city":"Arvin","latitude":"35.1944","longitude":"-118.8306"},{"city":"Asbury","latitude":"37.2729","longitude":"-94.6052"},{"city":"Asbury","latitude":"40.7003","longitude":"-75.0121"},{"city":"Asbury Park","latitude":"40.2226","longitude":"-74.0117"},{"city":"Ascutney","latitude":"43.408","longitude":"-72.407"},{"city":"Ash Flat","latitude":"36.2365","longitude":"-91.6066"},{"city":"Ash Fork","latitude":"35.2171","longitude":"-112.4913"},{"city":"Ash Grove","latitude":"37.3177","longitude":"-93.5811"},{"city":"Ashaway","latitude":"41.4259","longitude":"-71.7852"},{"city":"Ashburn","latitude":"39.03","longitude":"-77.4711"},{"city":"Ashburn","latitude":"39.5458","longitude":"-91.172"},{"city":"Ashburn","latitude":"31.7096","longitude":"-83.6528"},{"city":"Ashby","latitude":"46.0931","longitude":"-95.8157"},{"city":"Ashdown","latitude":"33.6746","longitude":"-94.1264"},{"city":"Asheboro","latitude":"35.7157","longitude":"-79.8129"},{"city":"Asher","latitude":"34.9884","longitude":"-96.9254"},{"city":"Asherton","latitude":"28.4461","longitude":"-99.7604"},{"city":"Asheville","latitude":"35.5704","longitude":"-82.5537"},{"city":"Ashford","latitude":"31.1858","longitude":"-85.2359"},{"city":"Ashford","latitude":"46.7537","longitude":"-122.0113"},{"city":"Ashippun","latitude":"43.2182","longitude":"-88.5159"},{"city":"Ashkum","latitude":"40.8782","longitude":"-87.9531"},{"city":"Ashland","latitude":"33.2704","longitude":"-85.8337"},{"city":"Ashland","latitude":"32.1164","longitude":"-93.1171"},{"city":"Ashland","latitude":"42.1905","longitude":"-122.6992"},{"city":"Ashland","latitude":"39.8885","longitude":"-90.0079"},{"city":"Ashland","latitude":"38.7929","longitude":"-92.2478"},{"city":"Ashland","latitude":"34.8341","longitude":"-89.1778"},{"city":"Ashland","latitude":"41.0404","longitude":"-96.3707"},{"city":"Ashland","latitude":"38.4593","longitude":"-82.6449"},{"city":"Ashland","latitude":"37.1868","longitude":"-99.7697"},{"city":"Ashland","latitude":"45.5977","longitude":"-106.2975"},{"city":"Ashland","latitude":"40.8669","longitude":"-82.3157"},{"city":"Ashland","latitude":"40.7811","longitude":"-76.3451"},{"city":"Ashland","latitude":"37.7597","longitude":"-77.4716"},{"city":"Ashland","latitude":"46.5801","longitude":"-90.8715"},{"city":"Ashland City","latitude":"36.2607","longitude":"-87.0412"},{"city":"Ashley","latitude":"43.1873","longitude":"-84.4762"},{"city":"Ashley","latitude":"40.4098","longitude":"-82.9516"},{"city":"Ashley","latitude":"46.0347","longitude":"-99.3736"},{"city":"Ashley","latitude":"38.3289","longitude":"-89.1894"},{"city":"Ashley","latitude":"41.5214","longitude":"-85.0614"},{"city":"Ashmore","latitude":"39.5305","longitude":"-88.0202"},{"city":"Ashtabula","latitude":"41.8806","longitude":"-80.7984"},{"city":"Ashton","latitude":"44.9931","longitude":"-98.4991"},{"city":"Ashton","latitude":"44.0734","longitude":"-111.4482"},{"city":"Ashton","latitude":"41.2478","longitude":"-98.7951"},{"city":"Ashton","latitude":"41.8682","longitude":"-89.2224"},{"city":"Ashton","latitude":"43.3088","longitude":"-95.7925"},{"city":"Ashville","latitude":"33.8331","longitude":"-86.2698"},{"city":"Ashville","latitude":"39.7239","longitude":"-82.9576"},{"city":"Ashville","latitude":"40.5601","longitude":"-78.5472"},{"city":"Askov","latitude":"46.1886","longitude":"-92.7824"},{"city":"Asotin","latitude":"46.3371","longitude":"-117.0433"},{"city":"Aspen","latitude":"39.1948","longitude":"-106.837"},{"city":"Aspermont","latitude":"33.1405","longitude":"-100.2253"},{"city":"Aspers","latitude":"39.9764","longitude":"-77.226"},{"city":"Aspinwall","latitude":"41.9106","longitude":"-95.135"},{"city":"Assaria","latitude":"38.6801","longitude":"-97.6039"},{"city":"Assumption","latitude":"39.518","longitude":"-89.0478"},{"city":"Astatula","latitude":"28.7065","longitude":"-81.7346"},{"city":"Astor","latitude":"29.1635","longitude":"-81.5349"},{"city":"Astoria","latitude":"46.1856","longitude":"-123.8053"},{"city":"Astoria","latitude":"40.2279","longitude":"-90.3566"},{"city":"Astoria","latitude":"44.5577","longitude":"-96.5465"},{"city":"Atalissa","latitude":"41.5716","longitude":"-91.1664"},{"city":"Atascadero","latitude":"35.4827","longitude":"-120.6858"},{"city":"Atchison","latitude":"39.5625","longitude":"-95.1368"},{"city":"Atglen","latitude":"39.9473","longitude":"-75.9754"},{"city":"Athena","latitude":"45.8132","longitude":"-118.4924"},{"city":"Athens","latitude":"41.9515","longitude":"-76.5186"},{"city":"Athens","latitude":"39.3269","longitude":"-82.0987"},{"city":"Athens","latitude":"35.4573","longitude":"-84.6045"},{"city":"Athens","latitude":"37.423","longitude":"-81.0148"},{"city":"Athens","latitude":"33.9508","longitude":"-83.3689"},{"city":"Athens","latitude":"39.9619","longitude":"-89.7216"},{"city":"Athens","latitude":"42.2695","longitude":"-73.8104"},{"city":"Athens","latitude":"32.2041","longitude":"-95.8321"},{"city":"Athens","latitude":"45.0349","longitude":"-90.0792"},{"city":"Athens","latitude":"42.0866","longitude":"-85.2356"},{"city":"Athens","latitude":"32.658","longitude":"-93.0277"},{"city":"Athens","latitude":"34.7847","longitude":"-86.951"},{"city":"Atherton","latitude":"37.4539","longitude":"-122.2032"},{"city":"Athol","latitude":"47.9451","longitude":"-116.7062"},{"city":"Athol","latitude":"39.7665","longitude":"-98.9198"},{"city":"Atka","latitude":"52.2301","longitude":"-174.2133"},{"city":"Atkins","latitude":"35.2414","longitude":"-92.9465"},{"city":"Atkins","latitude":"41.9943","longitude":"-91.8585"},{"city":"Atkins","latitude":"36.8674","longitude":"-81.3992"},{"city":"Atkinson","latitude":"41.4167","longitude":"-90.0088"},{"city":"Atkinson","latitude":"42.5308","longitude":"-98.9746"},{"city":"Atkinson","latitude":"34.5275","longitude":"-78.1697"},{"city":"Atlanta","latitude":"39.8987","longitude":"-92.4801"},{"city":"Atlanta","latitude":"37.4358","longitude":"-96.767"},{"city":"Atlanta","latitude":"40.2134","longitude":"-86.0264"},{"city":"Atlanta","latitude":"33.1136","longitude":"-94.1672"},{"city":"Atlanta","latitude":"40.2637","longitude":"-89.2311"},{"city":"Atlanta","latitude":"33.7627","longitude":"-84.4225"},{"city":"Atlanta","latitude":"45.0017","longitude":"-84.1536"},{"city":"Atlanta","latitude":"31.8064","longitude":"-92.7383"},{"city":"Atlanta","latitude":"40.3684","longitude":"-99.4731"},{"city":"Atlantic","latitude":"41.3957","longitude":"-95.0138"},{"city":"Atlantic","latitude":"37.9023","longitude":"-75.5058"},{"city":"Atlantic","latitude":"41.5075","longitude":"-80.3393"},{"city":"Atlantic","latitude":"34.8823","longitude":"-76.344"},{"city":"Atlantic Beach","latitude":"30.3372","longitude":"-81.4128"},{"city":"Atlantic Beach","latitude":"34.7011","longitude":"-76.7403"},{"city":"Atlantic Beach","latitude":"40.5894","longitude":"-73.7296"},{"city":"Atlantic City","latitude":"39.3797","longitude":"-74.4527"},{"city":"Atlantic Highlands","latitude":"40.4112","longitude":"-74.0296"},{"city":"Atlasburg","latitude":"40.3436","longitude":"-80.3804"},{"city":"Atmore","latitude":"31.0927","longitude":"-87.4763"},{"city":"Atoka","latitude":"35.4239","longitude":"-89.7861"},{"city":"Atoka","latitude":"34.3857","longitude":"-96.1313"},{"city":"Atomic City","latitude":"43.4431","longitude":"-112.8124"},{"city":"Atqasuk","latitude":"70.481","longitude":"-157.3835"},{"city":"Attalla","latitude":"34.0049","longitude":"-86.104"},{"city":"Attapulgus","latitude":"30.7495","longitude":"-84.4839"},{"city":"Attica","latitude":"41.0634","longitude":"-82.8872"},{"city":"Attica","latitude":"40.2876","longitude":"-87.2449"},{"city":"Attica","latitude":"37.2426","longitude":"-98.2276"},{"city":"Attica","latitude":"43.0314","longitude":"-83.1607"},{"city":"Attica","latitude":"42.864","longitude":"-78.2799"},{"city":"Attleboro","latitude":"41.9311","longitude":"-71.295"},{"city":"Atwater","latitude":"45.1356","longitude":"-94.7769"},{"city":"Atwater","latitude":"41.0266","longitude":"-81.1622"},{"city":"Atwater","latitude":"37.3543","longitude":"-120.5981"},{"city":"Atwood","latitude":"40.5505","longitude":"-103.2746"},{"city":"Atwood","latitude":"39.7992","longitude":"-88.4626"},{"city":"Atwood","latitude":"35.9747","longitude":"-88.6689"},{"city":"Atwood","latitude":"39.8101","longitude":"-101.0418"},{"city":"Atwood","latitude":"34.9549","longitude":"-96.3367"},{"city":"Au Gres","latitude":"44.0431","longitude":"-83.6933"},{"city":"Au Sable Forks","latitude":"44.4507","longitude":"-73.6738"},{"city":"Auberry","latitude":"37.0754","longitude":"-119.49"},{"city":"Aubrey","latitude":"33.2872","longitude":"-96.9623"},{"city":"Aubrey","latitude":"34.7193","longitude":"-90.8976"},{"city":"Auburn","latitude":"32.6087","longitude":"-85.4899"},{"city":"Auburn","latitude":"38.9077","longitude":"-95.8158"},{"city":"Auburn","latitude":"44.085","longitude":"-70.2492"},{"city":"Auburn","latitude":"42.9338","longitude":"-76.5685"},{"city":"Auburn","latitude":"39.0961","longitude":"-80.8562"},{"city":"Auburn","latitude":"42.7944","longitude":"-111.0135"},{"city":"Auburn","latitude":"47.3041","longitude":"-122.211"},{"city":"Auburn","latitude":"40.5948","longitude":"-76.0975"},{"city":"Auburn","latitude":"38.895","longitude":"-121.0777"},{"city":"Auburn","latitude":"34.0157","longitude":"-83.8319"},{"city":"Auburn","latitude":"39.5765","longitude":"-89.7441"},{"city":"Auburn","latitude":"41.3666","longitude":"-85.0559"},{"city":"Auburn","latitude":"42.2496","longitude":"-94.8778"},{"city":"Auburn","latitude":"43.6021","longitude":"-84.0757"},{"city":"Auburn","latitude":"36.8654","longitude":"-86.7107"},{"city":"Auburn","latitude":"40.3894","longitude":"-95.8436"},{"city":"Auburn Hills","latitude":"42.6735","longitude":"-83.2447"},{"city":"Auburndale","latitude":"44.6266","longitude":"-90.0144"},{"city":"Auburndale","latitude":"28.0962","longitude":"-81.8011"},{"city":"Auburntown","latitude":"35.951","longitude":"-86.097"},{"city":"Audubon","latitude":"40.1304","longitude":"-75.428"},{"city":"Audubon","latitude":"39.8906","longitude":"-75.0722"},{"city":"Audubon","latitude":"46.8629","longitude":"-95.9809"},{"city":"Audubon","latitude":"41.7181","longitude":"-94.9286"},{"city":"Augusta","latitude":"40.2309","longitude":"-90.9498"},{"city":"Augusta","latitude":"35.2856","longitude":"-91.3616"},{"city":"Augusta","latitude":"38.5684","longitude":"-90.8806"},{"city":"Augusta","latitude":"47.4893","longitude":"-112.3922"},{"city":"Augusta","latitude":"44.6784","longitude":"-91.1203"},{"city":"Augusta","latitude":"33.3645","longitude":"-82.0708"},{"city":"Augusta","latitude":"44.3341","longitude":"-69.7319"},{"city":"Augusta","latitude":"42.3378","longitude":"-85.3525"},{"city":"Augusta","latitude":"37.6955","longitude":"-96.9921"},{"city":"Augusta","latitude":"38.7723","longitude":"-84.0003"},{"city":"Augusta Springs","latitude":"38.1079","longitude":"-79.3352"},{"city":"Aulander","latitude":"36.228","longitude":"-77.1136"},{"city":"Ault","latitude":"40.5893","longitude":"-104.7392"},{"city":"Aumsville","latitude":"44.8462","longitude":"-122.87"},{"city":"Aurelia","latitude":"42.7131","longitude":"-95.4368"},{"city":"Aurora","latitude":"39.0676","longitude":"-84.9053"},{"city":"Aurora","latitude":"39.4519","longitude":"-97.5297"},{"city":"Aurora","latitude":"47.5312","longitude":"-92.2399"},{"city":"Aurora","latitude":"35.303","longitude":"-76.7889"},{"city":"Aurora","latitude":"42.7511","longitude":"-76.6994"},{"city":"Aurora","latitude":"41.3118","longitude":"-81.345"},{"city":"Aurora","latitude":"38.9201","longitude":"-111.934"},{"city":"Aurora","latitude":"39.3254","longitude":"-79.5546"},{"city":"Aurora","latitude":"45.2286","longitude":"-122.7572"},{"city":"Aurora","latitude":"44.2834","longitude":"-96.6854"},{"city":"Aurora","latitude":"39.7084","longitude":"-104.7274"},{"city":"Aurora","latitude":"41.7637","longitude":"-88.2901"},{"city":"Aurora","latitude":"42.6201","longitude":"-91.7295"},{"city":"Aurora","latitude":"40.8642","longitude":"-98.007"},{"city":"Aurora","latitude":"36.9674","longitude":"-93.7183"},{"city":"Austell","latitude":"33.8202","longitude":"-84.6452"},{"city":"Austin","latitude":"30.3006","longitude":"-97.7517"},{"city":"Austin","latitude":"41.6373","longitude":"-78.0903"},{"city":"Austin","latitude":"39.4978","longitude":"-117.0741"},{"city":"Austin","latitude":"43.6722","longitude":"-92.9761"},{"city":"Austin","latitude":"38.7417","longitude":"-85.8118"},{"city":"Austin","latitude":"35.0069","longitude":"-91.9896"},{"city":"Austinburg","latitude":"41.7692","longitude":"-80.8556"},{"city":"Austwell","latitude":"28.3911","longitude":"-96.8437"},{"city":"Autaugaville","latitude":"32.432","longitude":"-86.6579"},{"city":"Autryville","latitude":"34.9965","longitude":"-78.6412"},{"city":"Auxier","latitude":"37.7356","longitude":"-82.7661"},{"city":"Auxvasse","latitude":"39.0174","longitude":"-91.8958"},{"city":"Ava","latitude":"36.9546","longitude":"-92.6661"},{"city":"Ava","latitude":"37.8886","longitude":"-89.4965"},{"city":"Avalon","latitude":"39.0906","longitude":"-74.7357"},{"city":"Avalon","latitude":"33.3342","longitude":"-118.3315"},{"city":"Avant","latitude":"36.4886","longitude":"-96.0599"},{"city":"Avella","latitude":"40.2737","longitude":"-80.4672"},{"city":"Avenal","latitude":"36.0312","longitude":"-120.116"},{"city":"Avenel","latitude":"40.5839","longitude":"-74.272"},{"city":"Avera","latitude":"33.1934","longitude":"-82.5287"},{"city":"Averill Park","latitude":"42.6361","longitude":"-73.553"},{"city":"Avery","latitude":"38.1939","longitude":"-120.379"},{"city":"Avery","latitude":"33.5523","longitude":"-94.7804"},{"city":"Avila Beach","latitude":"35.1971","longitude":"-120.7192"},{"city":"Avilla","latitude":"41.3638","longitude":"-85.2317"},{"city":"Avilla","latitude":"37.1938","longitude":"-94.1298"},{"city":"Avinger","latitude":"32.8981","longitude":"-94.5535"},{"city":"Avis","latitude":"41.1857","longitude":"-77.3167"},{"city":"Aviston","latitude":"38.6163","longitude":"-89.6088"},{"city":"Avoca","latitude":"41.4828","longitude":"-95.3373"},{"city":"Avoca","latitude":"36.398","longitude":"-94.071"},{"city":"Avoca","latitude":"40.7965","longitude":"-96.1192"},{"city":"Avoca","latitude":"42.4096","longitude":"-77.4222"},{"city":"Avoca","latitude":"43.1906","longitude":"-90.326"},{"city":"Avoca","latitude":"43.949","longitude":"-95.6465"},{"city":"Avoca","latitude":"38.9172","longitude":"-86.5557"},{"city":"Avon","latitude":"39.7599","longitude":"-86.391"},{"city":"Avon","latitude":"40.662","longitude":"-90.4352"},{"city":"Avon","latitude":"43.0052","longitude":"-98.0592"},{"city":"Avon","latitude":"42.9129","longitude":"-77.7464"},{"city":"Avon","latitude":"41.4485","longitude":"-82.0187"},{"city":"Avon","latitude":"35.3467","longitude":"-75.5069"},{"city":"Avon","latitude":"46.6264","longitude":"-112.582"},{"city":"Avon","latitude":"45.6094","longitude":"-94.4609"},{"city":"Avon","latitude":"39.6445","longitude":"-106.5133"},{"city":"Avon Lake","latitude":"41.4945","longitude":"-82.016"},{"city":"Avon Park","latitude":"27.5908","longitude":"-81.5081"},{"city":"Avondale","latitude":"33.3858","longitude":"-112.3236"},{"city":"Avondale","latitude":"39.8248","longitude":"-75.7819"},{"city":"Avondale","latitude":"38.2351","longitude":"-104.3434"},{"city":"Avondale Estates","latitude":"33.7699","longitude":"-84.2648"},{"city":"Avonmore","latitude":"40.5272","longitude":"-79.4694"},{"city":"Awendaw","latitude":"32.9824","longitude":"-79.646"},{"city":"Axis","latitude":"30.9296","longitude":"-88.018"},{"city":"Axtell","latitude":"40.4798","longitude":"-99.1292"},{"city":"Axtell","latitude":"39.8712","longitude":"-96.2566"},{"city":"Ayden","latitude":"35.4694","longitude":"-77.4167"},{"city":"Aynor","latitude":"34.0001","longitude":"-79.2071"},{"city":"Ayr","latitude":"47.0411","longitude":"-97.4909"},{"city":"Ayr","latitude":"40.4377","longitude":"-98.4409"},{"city":"Ayrshire","latitude":"43.0395","longitude":"-94.8336"},{"city":"Azle","latitude":"32.8955","longitude":"-97.5379"},{"city":"Aztec","latitude":"36.819","longitude":"-107.9826"},{"city":"Azusa","latitude":"34.1386","longitude":"-117.9124"},{"city":"Babb","latitude":"48.8777","longitude":"-113.4408"},{"city":"Babbitt","latitude":"47.6445","longitude":"-91.9458"},{"city":"Babcock","latitude":"44.3044","longitude":"-90.1076"},{"city":"Babson Park","latitude":"27.8342","longitude":"-81.5281"},{"city":"Babylon","latitude":"40.6949","longitude":"-73.327"},{"city":"Backus","latitude":"46.8207","longitude":"-94.5148"},{"city":"Bacliff","latitude":"29.5077","longitude":"-94.988"},{"city":"Baconton","latitude":"31.3804","longitude":"-84.1592"},{"city":"Bad Axe","latitude":"43.8037","longitude":"-82.9981"},{"city":"Baden","latitude":"40.6396","longitude":"-80.2228"},{"city":"Badger","latitude":"48.7768","longitude":"-96.0213"},{"city":"Badger","latitude":"42.6141","longitude":"-94.1446"},{"city":"Badger","latitude":"44.4855","longitude":"-97.2079"},{"city":"Badin","latitude":"35.4072","longitude":"-80.1184"},{"city":"Bagdad","latitude":"30.5824","longitude":"-87.0447"},{"city":"Bagdad","latitude":"34.5771","longitude":"-113.1771"},{"city":"Baggs","latitude":"41.0345","longitude":"-107.6574"},{"city":"Bagley","latitude":"47.5239","longitude":"-95.4041"},{"city":"Bagley","latitude":"42.9015","longitude":"-91.0974"},{"city":"Bagley","latitude":"41.8464","longitude":"-94.4303"},{"city":"Bailey","latitude":"33.4336","longitude":"-96.1651"},{"city":"Bailey","latitude":"35.7805","longitude":"-78.1129"},{"city":"Baileys Harbor","latitude":"45.0659","longitude":"-87.133"},{"city":"Baileyton","latitude":"34.2608","longitude":"-86.6082"},{"city":"Baileyville","latitude":"39.8419","longitude":"-96.1828"},{"city":"Bainbridge","latitude":"40.0915","longitude":"-76.6581"},{"city":"Bainbridge","latitude":"42.2974","longitude":"-75.4807"},{"city":"Bainbridge","latitude":"39.2265","longitude":"-83.2695"},{"city":"Bainbridge","latitude":"30.9046","longitude":"-84.5722"},{"city":"Bainbridge","latitude":"39.7615","longitude":"-86.8116"},{"city":"Bainbridge Island","latitude":"47.6439","longitude":"-122.5434"},{"city":"Bainville","latitude":"48.1394","longitude":"-104.2197"},{"city":"Baird","latitude":"32.396","longitude":"-99.3962"},{"city":"Bairdford","latitude":"40.6279","longitude":"-79.8816"},{"city":"Bairoil","latitude":"42.2372","longitude":"-107.5611"},{"city":"Baker","latitude":"39.015","longitude":"-114.1233"},{"city":"Baker","latitude":"46.364","longitude":"-104.2742"},{"city":"Baker","latitude":"46.7105","longitude":"-96.5579"},{"city":"Baker","latitude":"30.5833","longitude":"-91.1581"},{"city":"Baker","latitude":"35.2769","longitude":"-116.0718"},{"city":"Baker City","latitude":"44.7749","longitude":"-117.832"},{"city":"Bakersfield","latitude":"36.5238","longitude":"-92.1442"},{"city":"Bakersfield","latitude":"35.353","longitude":"-119.0359"},{"city":"Bakerstown","latitude":"40.6528","longitude":"-79.9408"},{"city":"Bakersville","latitude":"36.0154","longitude":"-82.1582"},{"city":"Balaton","latitude":"44.2331","longitude":"-95.8707"},{"city":"Bald Knob","latitude":"35.3123","longitude":"-91.5709"},{"city":"Baldwin","latitude":"34.4864","longitude":"-83.5494"},{"city":"Baldwin","latitude":"42.0732","longitude":"-90.8386"},{"city":"Baldwin","latitude":"38.1838","longitude":"-89.8451"},{"city":"Baldwin","latitude":"29.8389","longitude":"-91.5522"},{"city":"Baldwin","latitude":"43.8971","longitude":"-85.8531"},{"city":"Baldwin","latitude":"40.6634","longitude":"-73.6104"},{"city":"Baldwin","latitude":"44.954","longitude":"-92.3709"},{"city":"Baldwin City","latitude":"38.7782","longitude":"-95.188"},{"city":"Baldwin Park","latitude":"34.0829","longitude":"-117.9721"},{"city":"Baldwinsville","latitude":"43.157","longitude":"-76.3319"},{"city":"Baldwyn","latitude":"34.5071","longitude":"-88.6416"},{"city":"Balfour","latitude":"47.9509","longitude":"-100.5343"},{"city":"Ball","latitude":"31.4188","longitude":"-92.4084"},{"city":"Ball Ground","latitude":"34.3426","longitude":"-84.3635"},{"city":"Ballantine","latitude":"45.9511","longitude":"-108.1428"},{"city":"Ballico","latitude":"37.4519","longitude":"-120.7037"},{"city":"Ballinger","latitude":"31.7396","longitude":"-99.9559"},{"city":"Ballston Spa","latitude":"43.0068","longitude":"-73.8524"},{"city":"Ballwin","latitude":"38.595","longitude":"-90.5501"},{"city":"Bally","latitude":"40.4004","longitude":"-75.5875"},{"city":"Balm","latitude":"27.7541","longitude":"-82.2882"},{"city":"Balmorhea","latitude":"30.984","longitude":"-103.7438"},{"city":"Balsam Lake","latitude":"45.4585","longitude":"-92.4528"},{"city":"Balta","latitude":"48.1666","longitude":"-100.0369"},{"city":"Baltic","latitude":"40.4436","longitude":"-81.7016"},{"city":"Baltic","latitude":"43.7603","longitude":"-96.7371"},{"city":"Baltic","latitude":"41.614","longitude":"-72.0866"},{"city":"Baltimore","latitude":"39.3051","longitude":"-76.6144"},{"city":"Baltimore","latitude":"39.846","longitude":"-82.6047"},{"city":"Bamberg","latitude":"33.2995","longitude":"-81.0323"},{"city":"Bancroft","latitude":"44.3093","longitude":"-89.5071"},{"city":"Bancroft","latitude":"38.5107","longitude":"-81.8418"},{"city":"Bancroft","latitude":"43.2928","longitude":"-94.2175"},{"city":"Bancroft","latitude":"42.8767","longitude":"-84.0659"},{"city":"Bancroft","latitude":"42.7202","longitude":"-111.8831"},{"city":"Bancroft","latitude":"42.0104","longitude":"-96.5733"},{"city":"Bandana","latitude":"37.1447","longitude":"-88.9418"},{"city":"Bandera","latitude":"29.7253","longitude":"-99.074"},{"city":"Bandon","latitude":"43.1141","longitude":"-124.4158"},{"city":"Bangor","latitude":"40.8678","longitude":"-75.2085"},{"city":"Bangor","latitude":"43.8937","longitude":"-90.9935"},{"city":"Bangor","latitude":"39.3761","longitude":"-121.4117"},{"city":"Bangor","latitude":"44.8322","longitude":"-68.7906"},{"city":"Bangor","latitude":"42.312","longitude":"-86.1135"},{"city":"Bangs","latitude":"31.7162","longitude":"-99.1303"},{"city":"Banks","latitude":"45.6148","longitude":"-123.1065"},{"city":"Banks","latitude":"44.0778","longitude":"-116.1278"},{"city":"Banks","latitude":"31.8132","longitude":"-85.8364"},{"city":"Banks","latitude":"33.5758","longitude":"-92.2671"},{"city":"Banner Elk","latitude":"36.1587","longitude":"-81.8679"},{"city":"Banning","latitude":"33.9461","longitude":"-116.8991"},{"city":"Bannock","latitude":"40.1043","longitude":"-80.9757"},{"city":"Banquete","latitude":"27.8007","longitude":"-97.7972"},{"city":"Bantam","latitude":"41.7247","longitude":"-73.2422"},{"city":"Bantry","latitude":"48.4977","longitude":"-100.6098"},{"city":"Baraboo","latitude":"43.4697","longitude":"-89.7378"},{"city":"Baraga","latitude":"46.7766","longitude":"-88.4965"},{"city":"Barataria","latitude":"29.7092","longitude":"-90.1217"},{"city":"Barberton","latitude":"41.0094","longitude":"-81.6037"},{"city":"Barboursville","latitude":"38.4061","longitude":"-82.297"},{"city":"Barbourville","latitude":"36.8667","longitude":"-83.8849"},{"city":"Barclay","latitude":"39.145","longitude":"-75.8656"},{"city":"Bardolph","latitude":"40.4962","longitude":"-90.5633"},{"city":"Bardstown","latitude":"37.8174","longitude":"-85.4548"},{"city":"Bardwell","latitude":"36.874","longitude":"-89.0091"},{"city":"Bardwell","latitude":"32.2671","longitude":"-96.6954"},{"city":"Bargersville","latitude":"39.5412","longitude":"-86.2004"},{"city":"Baring","latitude":"47.7661","longitude":"-121.4803"},{"city":"Baring","latitude":"40.2448","longitude":"-92.2057"},{"city":"Barker","latitude":"43.3282","longitude":"-78.5535"},{"city":"Barling","latitude":"35.3285","longitude":"-94.2793"},{"city":"Barlow","latitude":"37.0513","longitude":"-89.0446"},{"city":"Barnard","latitude":"39.1892","longitude":"-98.0443"},{"city":"Barnard","latitude":"40.1755","longitude":"-94.8232"},{"city":"Barnegat Light","latitude":"39.753","longitude":"-74.1081"},{"city":"Barnes","latitude":"39.7115","longitude":"-96.8732"},{"city":"Barnes City","latitude":"41.5071","longitude":"-92.4696"},{"city":"Barneston","latitude":"40.0488","longitude":"-96.5735"},{"city":"Barnesville","latitude":"33.0508","longitude":"-84.1527"},{"city":"Barnesville","latitude":"46.6501","longitude":"-96.4163"},{"city":"Barnesville","latitude":"39.2211","longitude":"-77.3798"},{"city":"Barnesville","latitude":"39.9888","longitude":"-81.1728"},{"city":"Barnett","latitude":"38.3773","longitude":"-92.6744"},{"city":"Barneveld","latitude":"43.0117","longitude":"-89.8968"},{"city":"Barney","latitude":"46.2658","longitude":"-96.9988"},{"city":"Barnhart","latitude":"38.336","longitude":"-90.4046"},{"city":"Barnsdall","latitude":"36.5607","longitude":"-96.1627"},{"city":"Barnum","latitude":"42.5062","longitude":"-94.3657"},{"city":"Barnum","latitude":"46.5054","longitude":"-92.6884"},{"city":"Barnwell","latitude":"33.2419","longitude":"-81.3659"},{"city":"Baroda","latitude":"41.954","longitude":"-86.488"},{"city":"Barrackville","latitude":"39.5013","longitude":"-80.1696"},{"city":"Barre","latitude":"44.1997","longitude":"-72.5083"},{"city":"Barrett","latitude":"45.9124","longitude":"-95.8943"},{"city":"Barrington","latitude":"39.8689","longitude":"-75.0514"},{"city":"Barrington","latitude":"42.1515","longitude":"-88.1281"},{"city":"Barron","latitude":"45.4015","longitude":"-91.8476"},{"city":"Barronett","latitude":"45.6363","longitude":"-91.9942"},{"city":"Barry","latitude":"32.0998","longitude":"-96.6377"},{"city":"Barry","latitude":"45.5582","longitude":"-96.5604"},{"city":"Barry","latitude":"39.6982","longitude":"-91.0398"},{"city":"Barryton","latitude":"43.7505","longitude":"-85.1436"},{"city":"Barstow","latitude":"34.8661","longitude":"-117.0472"},{"city":"Barstow","latitude":"31.4616","longitude":"-103.3955"},{"city":"Bartelso","latitude":"38.5371","longitude":"-89.4671"},{"city":"Bartlesville","latitude":"36.7357","longitude":"-95.9452"},{"city":"Bartlett","latitude":"30.7952","longitude":"-97.4325"},{"city":"Bartlett","latitude":"41.9803","longitude":"-88.207"},{"city":"Bartlett","latitude":"41.8839","longitude":"-98.5527"},{"city":"Bartlett","latitude":"37.0549","longitude":"-95.2112"},{"city":"Bartley","latitude":"40.2511","longitude":"-100.3104"},{"city":"Bartley","latitude":"37.3373","longitude":"-81.7334"},{"city":"Barton","latitude":"44.7481","longitude":"-72.1785"},{"city":"Barton","latitude":"39.5323","longitude":"-79.0171"},{"city":"Bartow","latitude":"32.8816","longitude":"-82.4712"},{"city":"Bartow","latitude":"27.8868","longitude":"-81.8213"},{"city":"Bartow","latitude":"38.5422","longitude":"-79.7859"},{"city":"Barwick","latitude":"30.8933","longitude":"-83.7391"},{"city":"Basalt","latitude":"39.3663","longitude":"-107.0413"},{"city":"Basalt","latitude":"43.3143","longitude":"-112.165"},{"city":"Basco","latitude":"40.3278","longitude":"-91.1995"},{"city":"Bascom","latitude":"30.9278","longitude":"-85.1181"},{"city":"Bascom","latitude":"41.129","longitude":"-83.2869"},{"city":"Basehor","latitude":"39.1342","longitude":"-94.9324"},{"city":"Basile","latitude":"30.4855","longitude":"-92.601"},{"city":"Basin","latitude":"46.2834","longitude":"-112.2871"},{"city":"Basin","latitude":"44.3804","longitude":"-108.0466"},{"city":"Baskerville","latitude":"36.6844","longitude":"-78.2732"},{"city":"Baskin","latitude":"32.259","longitude":"-91.7474"},{"city":"Bass Lake","latitude":"37.328","longitude":"-119.5668"},{"city":"Bassett","latitude":"35.5356","longitude":"-90.1294"},{"city":"Bassett","latitude":"42.5828","longitude":"-99.5366"},{"city":"Bassett","latitude":"36.7615","longitude":"-79.9866"},{"city":"Bassfield","latitude":"31.4961","longitude":"-89.745"},{"city":"Bastrop","latitude":"30.1118","longitude":"-97.3257"},{"city":"Bastrop","latitude":"32.7749","longitude":"-91.9058"},{"city":"Basye","latitude":"38.8181","longitude":"-78.7659"},{"city":"Batavia","latitude":"42.9987","longitude":"-78.1802"},{"city":"Batavia","latitude":"40.9951","longitude":"-92.1674"},{"city":"Batavia","latitude":"41.8479","longitude":"-88.3109"},{"city":"Batavia","latitude":"39.0815","longitude":"-84.1718"},{"city":"Batchtown","latitude":"39.0331","longitude":"-90.6534"},{"city":"Bates City","latitude":"39.0047","longitude":"-94.0659"},{"city":"Batesland","latitude":"43.1278","longitude":"-102.1017"},{"city":"Batesville","latitude":"39.2974","longitude":"-85.2139"},{"city":"Batesville","latitude":"35.7687","longitude":"-91.6226"},{"city":"Batesville","latitude":"34.3147","longitude":"-89.9249"},{"city":"Batesville","latitude":"28.9553","longitude":"-99.6237"},{"city":"Bath","latitude":"42.3363","longitude":"-77.318"},{"city":"Bath","latitude":"43.9346","longitude":"-69.8346"},{"city":"Bath","latitude":"42.8203","longitude":"-84.4546"},{"city":"Bath","latitude":"40.1906","longitude":"-90.1425"},{"city":"Bath","latitude":"45.4692","longitude":"-98.3236"},{"city":"Bath","latitude":"35.4702","longitude":"-76.8119"},{"city":"Bath","latitude":"40.7279","longitude":"-75.3919"},{"city":"Bathgate","latitude":"48.8803","longitude":"-97.4741"},{"city":"Baton Rouge","latitude":"30.4419","longitude":"-91.131"},{"city":"Battle Creek","latitude":"41.9981","longitude":"-97.5994"},{"city":"Battle Creek","latitude":"42.3168","longitude":"-95.6003"},{"city":"Battle Creek","latitude":"42.2986","longitude":"-85.2296"},{"city":"Battle Ground","latitude":"45.7764","longitude":"-122.5413"},{"city":"Battle Ground","latitude":"40.5076","longitude":"-86.8527"},{"city":"Battle Lake","latitude":"46.2845","longitude":"-95.7191"},{"city":"Battle Mountain","latitude":"40.6379","longitude":"-116.9485"},{"city":"Battlement Mesa","latitude":"39.4505","longitude":"-108.0068"},{"city":"Baudette","latitude":"48.7119","longitude":"-94.5924"},{"city":"Bauxite","latitude":"34.5602","longitude":"-92.4987"},{"city":"Baxley","latitude":"31.7642","longitude":"-82.3508"},{"city":"Baxter","latitude":"46.3426","longitude":"-94.2794"},{"city":"Baxter","latitude":"41.8252","longitude":"-93.1525"},{"city":"Baxter","latitude":"36.1536","longitude":"-85.6349"},{"city":"Baxter Springs","latitude":"37.0196","longitude":"-94.7351"},{"city":"Bay","latitude":"35.7456","longitude":"-90.5547"},{"city":"Bay Center","latitude":"46.6211","longitude":"-123.9533"},{"city":"Bay City","latitude":"45.5216","longitude":"-123.8858"},{"city":"Bay City","latitude":"43.5903","longitude":"-83.8886"},{"city":"Bay City","latitude":"28.9838","longitude":"-95.9601"},{"city":"Bay City","latitude":"44.5872","longitude":"-92.4574"},{"city":"Bay Minette","latitude":"30.893","longitude":"-87.7912"},{"city":"Bay Pines","latitude":"27.8139","longitude":"-82.7747"},{"city":"Bay Port","latitude":"43.8378","longitude":"-83.3741"},{"city":"Bay Shore","latitude":"45.3609","longitude":"-85.1116"},{"city":"Bay Shore","latitude":"40.7317","longitude":"-73.2505"},{"city":"Bay Springs","latitude":"31.9772","longitude":"-89.2792"},{"city":"Bay Village","latitude":"41.4851","longitude":"-81.9315"},{"city":"Bayard","latitude":"39.2711","longitude":"-79.3662"},{"city":"Bayard","latitude":"41.7572","longitude":"-103.323"},{"city":"Bayard","latitude":"41.8519","longitude":"-94.5578"},{"city":"Bayard","latitude":"32.7583","longitude":"-108.1336"},{"city":"Bayboro","latitude":"35.1474","longitude":"-76.7692"},{"city":"Bayfield","latitude":"37.2341","longitude":"-107.5952"},{"city":"Bayfield","latitude":"46.8141","longitude":"-90.8226"},{"city":"Baylis","latitude":"39.7294","longitude":"-90.9095"},{"city":"Bayonne","latitude":"40.6661","longitude":"-74.1142"},{"city":"Bayou Goula","latitude":"30.2105","longitude":"-91.1765"},{"city":"Bayou La Batre","latitude":"30.4126","longitude":"-88.2609"},{"city":"Bayport","latitude":"45.0152","longitude":"-92.7789"},{"city":"Bayport","latitude":"40.746","longitude":"-73.0546"},{"city":"Bayside","latitude":"28.0966","longitude":"-97.2109"},{"city":"Baytown","latitude":"29.7586","longitude":"-94.9669"},{"city":"Bayville","latitude":"40.9077","longitude":"-73.5603"},{"city":"Bazine","latitude":"38.4463","longitude":"-99.6927"},{"city":"Beach","latitude":"46.9192","longitude":"-104.008"},{"city":"Beach City","latitude":"40.6531","longitude":"-81.5795"},{"city":"Beach Haven","latitude":"39.5658","longitude":"-74.2489"},{"city":"Beachwood","latitude":"41.4759","longitude":"-81.503"},{"city":"Beachwood","latitude":"39.9287","longitude":"-74.2023"},{"city":"Beacon","latitude":"41.2747","longitude":"-92.6814"},{"city":"Beacon","latitude":"41.5036","longitude":"-73.9655"},{"city":"Beale AFB","latitude":"39.1095","longitude":"-121.3542"},{"city":"Bealeton","latitude":"38.5822","longitude":"-77.7781"},{"city":"Beallsville","latitude":"40.0619","longitude":"-80.0302"},{"city":"Beallsville","latitude":"39.8489","longitude":"-81.0354"},{"city":"Beaman","latitude":"42.2202","longitude":"-92.8221"},{"city":"Bean Station","latitude":"36.3322","longitude":"-83.2852"},{"city":"Bear","latitude":"39.6188","longitude":"-75.6804"},{"city":"Bear Creek","latitude":"34.2651","longitude":"-87.7164"},{"city":"Bear Creek","latitude":"44.5313","longitude":"-88.7275"},{"city":"Bear Lake","latitude":"41.9934","longitude":"-79.5014"},{"city":"Bear Lake","latitude":"44.4198","longitude":"-86.1453"},{"city":"Bear River City","latitude":"41.6124","longitude":"-112.125"},{"city":"Bearcreek","latitude":"45.1606","longitude":"-109.1572"},{"city":"Bearden","latitude":"33.7276","longitude":"-92.6187"},{"city":"Beardsley","latitude":"45.5577","longitude":"-96.7139"},{"city":"Beardstown","latitude":"39.9994","longitude":"-90.4178"},{"city":"Beasley","latitude":"29.4946","longitude":"-95.9146"},{"city":"Beason","latitude":"40.1423","longitude":"-89.1951"},{"city":"Beatrice","latitude":"40.2738","longitude":"-96.7455"},{"city":"Beatrice","latitude":"31.7334","longitude":"-87.209"},{"city":"Beattie","latitude":"39.8624","longitude":"-96.4177"},{"city":"Beatty","latitude":"42.4419","longitude":"-121.2716"},{"city":"Beatty","latitude":"36.9352","longitude":"-116.7025"},{"city":"Beattyville","latitude":"37.5862","longitude":"-83.7065"},{"city":"Beaufort","latitude":"34.7309","longitude":"-76.6487"},{"city":"Beaufort","latitude":"32.4606","longitude":"-80.7245"},{"city":"Beaumont","latitude":"30.085","longitude":"-94.1451"},{"city":"Beaumont","latitude":"31.1707","longitude":"-88.9252"},{"city":"Beaumont","latitude":"33.907","longitude":"-116.9762"},{"city":"Beaver","latitude":"36.4752","longitude":"-93.7727"},{"city":"Beaver","latitude":"42.0383","longitude":"-94.14"},{"city":"Beaver","latitude":"40.6936","longitude":"-80.3074"},{"city":"Beaver","latitude":"66.383","longitude":"-147.3219"},{"city":"Beaver","latitude":"37.7356","longitude":"-81.15"},{"city":"Beaver","latitude":"38.276","longitude":"-112.6383"},{"city":"Beaver","latitude":"45.278","longitude":"-123.8221"},{"city":"Beaver","latitude":"36.8151","longitude":"-100.5235"},{"city":"Beaver","latitude":"39.0319","longitude":"-82.8252"},{"city":"Beaver Bay","latitude":"47.2561","longitude":"-91.3061"},{"city":"Beaver City","latitude":"40.1383","longitude":"-99.8276"},{"city":"Beaver Creek","latitude":"43.6124","longitude":"-96.3624"},{"city":"Beaver Crossing","latitude":"40.7782","longitude":"-97.2825"},{"city":"Beaver Dam","latitude":"37.4044","longitude":"-86.8745"},{"city":"Beaver Dam","latitude":"43.4688","longitude":"-88.8311"},{"city":"Beaver Falls","latitude":"40.762","longitude":"-80.3225"},{"city":"Beaver Meadows","latitude":"40.9299","longitude":"-75.9131"},{"city":"Beaver Springs","latitude":"40.7449","longitude":"-77.2168"},{"city":"Beavercreek","latitude":"45.2756","longitude":"-122.5136"},{"city":"Beaverdale","latitude":"40.3242","longitude":"-78.7013"},{"city":"Beaverdam","latitude":"40.8328","longitude":"-83.9739"},{"city":"Beaverton","latitude":"45.4779","longitude":"-122.8168"},{"city":"Beaverton","latitude":"43.8811","longitude":"-84.4887"},{"city":"Beaverton","latitude":"33.9354","longitude":"-88.0218"},{"city":"Beavertown","latitude":"40.7522","longitude":"-77.1693"},{"city":"Beaverville","latitude":"40.9534","longitude":"-87.6548"},{"city":"Bechtelsville","latitude":"40.3711","longitude":"-75.6306"},{"city":"Beckemeyer","latitude":"38.6059","longitude":"-89.4322"},{"city":"Becker","latitude":"45.3814","longitude":"-93.8737"},{"city":"Beckley","latitude":"37.7877","longitude":"-81.184"},{"city":"Beckville","latitude":"32.2436","longitude":"-94.4561"},{"city":"Beckwourth","latitude":"39.8485","longitude":"-120.4111"},{"city":"Bedford","latitude":"42.8983","longitude":"-110.9432"},{"city":"Bedford","latitude":"32.8464","longitude":"-97.135"},{"city":"Bedford","latitude":"37.336","longitude":"-79.5179"},{"city":"Bedford","latitude":"40.0149","longitude":"-78.5033"},{"city":"Bedford","latitude":"41.3919","longitude":"-81.5359"},{"city":"Bedford","latitude":"38.5953","longitude":"-85.3175"},{"city":"Bedford","latitude":"40.6711","longitude":"-94.724"},{"city":"Bedford","latitude":"38.8602","longitude":"-86.4895"},{"city":"Bedford Hills","latitude":"41.2362","longitude":"-73.6959"},{"city":"Bedford Park","latitude":"41.767","longitude":"-87.7915"},{"city":"Bedias","latitude":"30.7792","longitude":"-95.9469"},{"city":"Bee","latitude":"41.0064","longitude":"-97.0583"},{"city":"Beebe","latitude":"35.0714","longitude":"-91.8998"},{"city":"Beech Bottom","latitude":"40.2181","longitude":"-80.6588"},{"city":"Beech Creek","latitude":"41.0745","longitude":"-77.5852"},{"city":"Beech Grove","latitude":"37.6183","longitude":"-87.3921"},{"city":"Beech Grove","latitude":"39.7153","longitude":"-86.087"},{"city":"Beecher","latitude":"41.3504","longitude":"-87.6171"},{"city":"Beecher City","latitude":"39.1866","longitude":"-88.7875"},{"city":"Beecher Falls","latitude":"45.009","longitude":"-71.4935"},{"city":"Beechmont","latitude":"37.1714","longitude":"-87.0364"},{"city":"Beedeville","latitude":"35.4292","longitude":"-91.1107"},{"city":"Beemer","latitude":"41.9299","longitude":"-96.8093"},{"city":"Beersheba Springs","latitude":"35.4589","longitude":"-85.6689"},{"city":"Beeville","latitude":"28.4059","longitude":"-97.7494"},{"city":"Beggs","latitude":"35.7769","longitude":"-96.0279"},{"city":"Bejou","latitude":"47.4429","longitude":"-95.9727"},{"city":"Bel Air","latitude":"39.5348","longitude":"-76.346"},{"city":"Belcher","latitude":"32.7521","longitude":"-93.8372"},{"city":"Belcourt","latitude":"48.8417","longitude":"-99.7447"},{"city":"Belden","latitude":"42.4117","longitude":"-97.2075"},{"city":"Belden","latitude":"40.004","longitude":"-121.2541"},{"city":"Belding","latitude":"43.0968","longitude":"-85.2331"},{"city":"Belen","latitude":"34.6803","longitude":"-106.7875"},{"city":"Belfair","latitude":"47.4495","longitude":"-122.8487"},{"city":"Belfast","latitude":"44.428","longitude":"-69.0325"},{"city":"Belfield","latitude":"46.8859","longitude":"-103.1989"},{"city":"Belford","latitude":"40.4261","longitude":"-74.0802"},{"city":"Belfry","latitude":"37.6194","longitude":"-82.2684"},{"city":"Belfry","latitude":"45.1375","longitude":"-108.9985"},{"city":"Belgium","latitude":"43.5019","longitude":"-87.8476"},{"city":"Belgrade","latitude":"41.4709","longitude":"-98.0677"},{"city":"Belgrade","latitude":"45.7796","longitude":"-111.1751"},{"city":"Belgrade","latitude":"45.4507","longitude":"-94.9998"},{"city":"Belhaven","latitude":"35.5428","longitude":"-76.6232"},{"city":"Belington","latitude":"39.022","longitude":"-79.9383"},{"city":"Belk","latitude":"33.6515","longitude":"-87.9287"},{"city":"Belknap","latitude":"37.3224","longitude":"-88.9405"},{"city":"Bell","latitude":"29.7569","longitude":"-82.862"},{"city":"Bell","latitude":"33.9801","longitude":"-118.1798"},{"city":"Bell Buckle","latitude":"35.59","longitude":"-86.353"},{"city":"Bell City","latitude":"37.0237","longitude":"-89.8196"},{"city":"Bell Gardens","latitude":"33.9663","longitude":"-118.155"},{"city":"Bella Vista","latitude":"40.6502","longitude":"-122.245"},{"city":"Bella Vista","latitude":"36.4667","longitude":"-94.2707"},{"city":"Bellaire","latitude":"40.0177","longitude":"-80.7469"},{"city":"Bellaire","latitude":"44.9738","longitude":"-85.2057"},{"city":"Bellaire","latitude":"29.704","longitude":"-95.4621"},{"city":"Bellamy","latitude":"32.4582","longitude":"-88.1277"},{"city":"Bellbrook","latitude":"39.6384","longitude":"-84.0864"},{"city":"Belle","latitude":"38.2337","longitude":"-81.5387"},{"city":"Belle","latitude":"38.2848","longitude":"-91.7217"},{"city":"Belle Center","latitude":"40.509","longitude":"-83.7453"},{"city":"Belle Chasse","latitude":"29.8472","longitude":"-90.0069"},{"city":"Belle Fourche","latitude":"44.6642","longitude":"-103.8564"},{"city":"Belle Glade","latitude":"26.6919","longitude":"-80.6672"},{"city":"Belle Haven","latitude":"37.5557","longitude":"-75.8258"},{"city":"Belle Mead","latitude":"40.4645","longitude":"-74.6725"},{"city":"Belle Plaine","latitude":"37.3934","longitude":"-97.2796"},{"city":"Belle Plaine","latitude":"41.8954","longitude":"-92.2751"},{"city":"Belle Plaine","latitude":"44.6189","longitude":"-93.7644"},{"city":"Belle Rive","latitude":"38.2317","longitude":"-88.7405"},{"city":"Belle Rose","latitude":"30.0422","longitude":"-91.0498"},{"city":"Belle Valley","latitude":"39.7888","longitude":"-81.5565"},{"city":"Belle Vernon","latitude":"40.1256","longitude":"-79.867"},{"city":"Belleair Beach","latitude":"27.9242","longitude":"-82.8358"},{"city":"Bellefontaine","latitude":"40.3627","longitude":"-83.763"},{"city":"Bellefonte","latitude":"40.9141","longitude":"-77.7683"},{"city":"Bellerose","latitude":"40.7242","longitude":"-73.7167"},{"city":"Belleview","latitude":"29.0611","longitude":"-82.0565"},{"city":"Belleville","latitude":"35.0915","longitude":"-93.4458"},{"city":"Belleville","latitude":"38.5165","longitude":"-89.99"},{"city":"Belleville","latitude":"40.606","longitude":"-77.721"},{"city":"Belleville","latitude":"43.7843","longitude":"-76.1171"},{"city":"Belleville","latitude":"42.8643","longitude":"-89.5402"},{"city":"Belleville","latitude":"42.2021","longitude":"-83.4838"},{"city":"Belleville","latitude":"39.8245","longitude":"-97.6337"},{"city":"Bellevue","latitude":"43.4685","longitude":"-114.2551"},{"city":"Bellevue","latitude":"33.6334","longitude":"-98.0161"},{"city":"Bellevue","latitude":"41.2743","longitude":"-82.8395"},{"city":"Bellevue","latitude":"47.5953","longitude":"-122.155"},{"city":"Bellevue","latitude":"42.2625","longitude":"-90.4319"},{"city":"Bellevue","latitude":"39.1011","longitude":"-84.4776"},{"city":"Bellevue","latitude":"42.4443","longitude":"-85.0187"},{"city":"Bellevue","latitude":"41.1536","longitude":"-95.9357"},{"city":"Bellflower","latitude":"40.3403","longitude":"-88.5265"},{"city":"Bellflower","latitude":"33.888","longitude":"-118.1271"},{"city":"Bellflower","latitude":"39.0036","longitude":"-91.3521"},{"city":"Bellingham","latitude":"45.1366","longitude":"-96.2841"},{"city":"Bellingham","latitude":"48.7543","longitude":"-122.4687"},{"city":"Bellmawr","latitude":"39.8665","longitude":"-75.0941"},{"city":"Bellmont","latitude":"38.383","longitude":"-87.9106"},{"city":"Bellmore","latitude":"40.6569","longitude":"-73.5285"},{"city":"Bellows Falls","latitude":"43.1344","longitude":"-72.455"},{"city":"Bellport","latitude":"40.7547","longitude":"-72.9423"},{"city":"Bells","latitude":"33.6167","longitude":"-96.4126"},{"city":"Bells","latitude":"35.7203","longitude":"-89.0859"},{"city":"Bellville","latitude":"32.1526","longitude":"-81.9743"},{"city":"Bellville","latitude":"29.9472","longitude":"-96.2597"},{"city":"Bellville","latitude":"40.6292","longitude":"-82.5238"},{"city":"Bellwood","latitude":"40.6009","longitude":"-78.3343"},{"city":"Bellwood","latitude":"41.8829","longitude":"-87.8762"},{"city":"Bellwood","latitude":"41.3419","longitude":"-97.2398"},{"city":"Belmar","latitude":"40.1798","longitude":"-74.0255"},{"city":"Belmond","latitude":"42.8466","longitude":"-93.6084"},{"city":"Belmont","latitude":"37.5154","longitude":"-122.2955"},{"city":"Belmont","latitude":"34.5046","longitude":"-88.208"},{"city":"Belmont","latitude":"39.3786","longitude":"-81.2635"},{"city":"Belmont","latitude":"35.2214","longitude":"-81.0403"},{"city":"Belmont","latitude":"40.0279","longitude":"-81.041"},{"city":"Belmont","latitude":"31.7182","longitude":"-93.5082"},{"city":"Belmont","latitude":"42.2226","longitude":"-78.0328"},{"city":"Belmont","latitude":"42.738","longitude":"-90.3347"},{"city":"Belmore","latitude":"41.1549","longitude":"-83.9419"},{"city":"Beloit","latitude":"40.9196","longitude":"-80.9963"},{"city":"Beloit","latitude":"42.523","longitude":"-89.0184"},{"city":"Beloit","latitude":"39.4645","longitude":"-98.1083"},{"city":"Belpre","latitude":"37.9507","longitude":"-99.0998"},{"city":"Belpre","latitude":"39.2815","longitude":"-81.5971"},{"city":"Belspring","latitude":"37.1938","longitude":"-80.6097"},{"city":"Belt","latitude":"47.3873","longitude":"-110.9276"},{"city":"Belton","latitude":"31.0525","longitude":"-97.479"},{"city":"Belton","latitude":"38.8193","longitude":"-94.5334"},{"city":"Belton","latitude":"34.5237","longitude":"-82.4937"},{"city":"Beltrami","latitude":"47.5425","longitude":"-96.5271"},{"city":"Beltsville","latitude":"39.0394","longitude":"-76.9211"},{"city":"Belva","latitude":"38.2327","longitude":"-81.1894"},{"city":"Belvidere","latitude":"43.8321","longitude":"-101.2711"},{"city":"Belvidere","latitude":"40.8294","longitude":"-75.0728"},{"city":"Belvidere","latitude":"40.2545","longitude":"-97.5578"},{"city":"Belvidere","latitude":"42.2544","longitude":"-88.8649"},{"city":"Belview","latitude":"44.6067","longitude":"-95.3289"},{"city":"Belvue","latitude":"39.2164","longitude":"-96.1789"},{"city":"Belzoni","latitude":"33.1804","longitude":"-90.4863"},{"city":"Bement","latitude":"39.9229","longitude":"-88.5724"},{"city":"Bemidji","latitude":"47.483","longitude":"-94.8788"},{"city":"Bemus Point","latitude":"42.1635","longitude":"-79.3895"},{"city":"Ben Lomond","latitude":"37.0782","longitude":"-122.0882"},{"city":"Ben Lomond","latitude":"33.8335","longitude":"-94.1177"},{"city":"Bena","latitude":"47.3404","longitude":"-94.206"},{"city":"Benavides","latitude":"27.5969","longitude":"-98.4137"},{"city":"Bend","latitude":"44.0562","longitude":"-121.3087"},{"city":"Bendena","latitude":"39.7436","longitude":"-95.1811"},{"city":"Bendersville","latitude":"39.9813","longitude":"-77.2493"},{"city":"Benedict","latitude":"47.8301","longitude":"-101.0843"},{"city":"Benedict","latitude":"37.6268","longitude":"-95.7434"},{"city":"Benedict","latitude":"38.5116","longitude":"-76.6797"},{"city":"Benedict","latitude":"41.0063","longitude":"-97.6073"},{"city":"Benham","latitude":"36.9653","longitude":"-82.9548"},{"city":"Benicia","latitude":"38.0704","longitude":"-122.1541"},{"city":"Benjamin","latitude":"33.5836","longitude":"-99.7929"},{"city":"Benkelman","latitude":"40.0517","longitude":"-101.5354"},{"city":"Benld","latitude":"39.093","longitude":"-89.8023"},{"city":"Bennet","latitude":"40.6818","longitude":"-96.5039"},{"city":"Bennett","latitude":"41.7399","longitude":"-90.9738"},{"city":"Bennett","latitude":"39.7366","longitude":"-104.4286"},{"city":"Bennett","latitude":"35.5664","longitude":"-79.54"},{"city":"Bennettsville","latitude":"34.6304","longitude":"-79.6874"},{"city":"Bennington","latitude":"34.0038","longitude":"-96.0375"},{"city":"Bennington","latitude":"39.0333","longitude":"-97.5931"},{"city":"Bennington","latitude":"41.3682","longitude":"-96.1617"},{"city":"Benoit","latitude":"33.6517","longitude":"-91.0087"},{"city":"Bensenville","latitude":"41.9595","longitude":"-87.9434"},{"city":"Benson","latitude":"40.8505","longitude":"-89.1211"},{"city":"Benson","latitude":"31.9157","longitude":"-110.3256"},{"city":"Benson","latitude":"35.3861","longitude":"-78.5436"},{"city":"Benson","latitude":"45.3152","longitude":"-95.6061"},{"city":"Bent","latitude":"33.1473","longitude":"-105.859"},{"city":"Bentley","latitude":"37.8867","longitude":"-97.5144"},{"city":"Bentleyville","latitude":"40.1178","longitude":"-80.0044"},{"city":"Benton","latitude":"35.1749","longitude":"-84.6516"},{"city":"Benton","latitude":"42.5702","longitude":"-90.3835"},{"city":"Benton","latitude":"37.099","longitude":"-89.5623"},{"city":"Benton","latitude":"36.8513","longitude":"-88.3593"},{"city":"Benton","latitude":"34.5771","longitude":"-92.5715"},{"city":"Benton","latitude":"37.7882","longitude":"-97.1077"},{"city":"Benton","latitude":"32.6906","longitude":"-93.74"},{"city":"Benton","latitude":"37.8189","longitude":"-118.4845"},{"city":"Benton","latitude":"38.011","longitude":"-88.9179"},{"city":"Benton","latitude":"40.7041","longitude":"-94.3612"},{"city":"Benton","latitude":"41.1955","longitude":"-76.3847"},{"city":"Benton City","latitude":"46.2624","longitude":"-119.4814"},{"city":"Benton City","latitude":"39.1346","longitude":"-91.7649"},{"city":"Benton Harbor","latitude":"42.1159","longitude":"-86.4488"},{"city":"Benton Ridge","latitude":"41.0042","longitude":"-83.7927"},{"city":"Bentonia","latitude":"32.6436","longitude":"-90.3692"},{"city":"Bentonville","latitude":"36.355","longitude":"-94.2299"},{"city":"Bentonville","latitude":"38.7455","longitude":"-83.6103"},{"city":"Benwood","latitude":"40.0139","longitude":"-80.7328"},{"city":"Benzonia","latitude":"44.616","longitude":"-86.0989"},{"city":"Berea","latitude":"41.3696","longitude":"-81.8642"},{"city":"Berea","latitude":"37.5904","longitude":"-84.2898"},{"city":"Beresford","latitude":"43.0797","longitude":"-96.7802"},{"city":"Bergen","latitude":"43.0825","longitude":"-77.9425"},{"city":"Bergenfield","latitude":"40.9236","longitude":"-73.9982"},{"city":"Berger","latitude":"38.6718","longitude":"-91.3392"},{"city":"Bergholz","latitude":"40.5208","longitude":"-80.8851"},{"city":"Bergman","latitude":"36.3128","longitude":"-93.0115"},{"city":"Bergoo","latitude":"38.4851","longitude":"-80.2981"},{"city":"Berino","latitude":"32.0689","longitude":"-106.6219"},{"city":"Berkeley","latitude":"37.8723","longitude":"-122.276"},{"city":"Berkeley","latitude":"41.8891","longitude":"-87.9114"},{"city":"Berkey","latitude":"41.7085","longitude":"-83.8384"},{"city":"Berkley","latitude":"42.4986","longitude":"-83.1853"},{"city":"Berlin","latitude":"39.7915","longitude":"-74.9375"},{"city":"Berlin","latitude":"31.0683","longitude":"-83.6236"},{"city":"Berlin","latitude":"44.4869","longitude":"-71.2599"},{"city":"Berlin","latitude":"46.3784","longitude":"-98.4885"},{"city":"Berlin","latitude":"40.5628","longitude":"-81.8011"},{"city":"Berlin","latitude":"43.9704","longitude":"-88.9505"},{"city":"Berlin","latitude":"39.9215","longitude":"-78.9509"},{"city":"Berlin","latitude":"38.3309","longitude":"-75.2149"},{"city":"Berlin Heights","latitude":"41.3204","longitude":"-82.4905"},{"city":"Bern","latitude":"39.9613","longitude":"-95.9713"},{"city":"Bernalillo","latitude":"35.3127","longitude":"-106.5537"},{"city":"Bernard","latitude":"42.3133","longitude":"-90.8319"},{"city":"Bernardsville","latitude":"40.7268","longitude":"-74.5918"},{"city":"Berne","latitude":"40.6567","longitude":"-84.9555"},{"city":"Bernice","latitude":"32.8276","longitude":"-92.6584"},{"city":"Bernie","latitude":"36.6717","longitude":"-89.9707"},{"city":"Bernville","latitude":"40.4334","longitude":"-76.1107"},{"city":"Berrien Springs","latitude":"41.9474","longitude":"-86.3403"},{"city":"Berry","latitude":"38.5206","longitude":"-84.3836"},{"city":"Berry","latitude":"33.6623","longitude":"-87.6079"},{"city":"Berry Creek","latitude":"39.6314","longitude":"-121.4052"},{"city":"Berrysburg","latitude":"40.6029","longitude":"-76.8101"},{"city":"Berryville","latitude":"36.3713","longitude":"-93.5705"},{"city":"Berryville","latitude":"39.1504","longitude":"-77.9824"},{"city":"Bertha","latitude":"46.2671","longitude":"-95.0618"},{"city":"Berthold","latitude":"48.3171","longitude":"-101.7481"},{"city":"Berthoud","latitude":"40.3061","longitude":"-105.0404"},{"city":"Bertram","latitude":"30.7428","longitude":"-98.0591"},{"city":"Bertrand","latitude":"36.9082","longitude":"-89.45"},{"city":"Bertrand","latitude":"40.5263","longitude":"-99.6324"},{"city":"Berwick","latitude":"29.7013","longitude":"-91.2377"},{"city":"Berwick","latitude":"41.0555","longitude":"-76.2492"},{"city":"Berwind","latitude":"37.266","longitude":"-81.6633"},{"city":"Berwyn","latitude":"40.0396","longitude":"-75.4439"},{"city":"Berwyn","latitude":"41.3508","longitude":"-99.5006"},{"city":"Berwyn","latitude":"41.8433","longitude":"-87.7909"},{"city":"Bessemer","latitude":"33.3709","longitude":"-86.9713"},{"city":"Bessemer","latitude":"40.9756","longitude":"-80.4878"},{"city":"Bessemer","latitude":"46.4775","longitude":"-90.0498"},{"city":"Bessemer City","latitude":"35.2843","longitude":"-81.2841"},{"city":"Bessie","latitude":"35.3855","longitude":"-98.9894"},{"city":"Bethalto","latitude":"38.9014","longitude":"-90.0467"},{"city":"Bethania","latitude":"36.1808","longitude":"-80.3376"},{"city":"Bethany","latitude":"35.5072","longitude":"-97.6417"},{"city":"Bethany","latitude":"40.2053","longitude":"-80.5629"},{"city":"Bethany","latitude":"39.6441","longitude":"-88.7412"},{"city":"Bethany","latitude":"40.2684","longitude":"-94.0281"},{"city":"Bethany Beach","latitude":"38.5391","longitude":"-75.066"},{"city":"Bethel","latitude":"38.5706","longitude":"-75.6194"},{"city":"Bethel","latitude":"39.8778","longitude":"-92.0224"},{"city":"Bethel","latitude":"45.4022","longitude":"-93.2711"},{"city":"Bethel","latitude":"40.4764","longitude":"-76.2906"},{"city":"Bethel","latitude":"35.8072","longitude":"-77.3762"},{"city":"Bethel","latitude":"38.9627","longitude":"-84.0847"},{"city":"Bethel","latitude":"60.7928","longitude":"-161.7917"},{"city":"Bethel Island","latitude":"38.0288","longitude":"-121.6404"},{"city":"Bethel Park","latitude":"40.3239","longitude":"-80.0364"},{"city":"Bethel Springs","latitude":"35.2341","longitude":"-88.6131"},{"city":"Bethesda","latitude":"40.0164","longitude":"-81.0727"},{"city":"Bethesda","latitude":"38.9866","longitude":"-77.1188"},{"city":"Bethlehem","latitude":"33.9372","longitude":"-83.7097"},